{"address":{"apiKey":null,"streetAddress":"","latitude":42.3600825,"longitude":-71.0588801,"city":"Boston","state":"MA","zip":"","aptNumber":null},"restaurants":[{"apiKey":"ee3f841c5988f406884225aec137a02ae305608170add496","deliveryMin":10.00,"deliveryPrice":3.99,"logoUrl":"https://eatstreet-static.s3.amazonaws.com/assets/images/restaurant_logos/the-no-1-food-16262_1402350187715.png","name":"#1 Food","streetAddress":"49 Warren Street","city":"Roxbury","state":"MA","zip":"02119","foodTypes":["Chinese Food","Thai Food","Dessert","Chinese","Thai","Noodles"],"phone":"(617) 445-6019","latitude":42.328861,"longitude":-71.08309,"minFreeDelivery":0.00,"taxRate":0.0630,"acceptsCash":true,"acceptsCard":true,"offersPickup":true,"offersDelivery":true,"isTestRestaurant":false,"minWaitTime":45,"maxWaitTime":60,"open":true,"url":"https://eatstreet.com/boston-ma/restaurants/no-1-food","hours":{"Monday":["4:00 PM - 3:00 AM"],"Saturday":["3:00 PM - 3:00 AM"],"Sunday":["4:00 PM - 3:00 AM"],"Wednesday":["4:30 PM - 3:00 AM"],"Tuesday":["4:30 PM - 3:00 AM"],"Friday":["3:00 PM - 3:00 AM"],"Thursday":["4:30 PM - 3:00 AM"]},"timezone":"US/Eastern"},{"apiKey":"ee3f841c5988f406144247b91fbcb2f33bf73df129dcadb7","deliveryMin":10.00,"logoUrl":"https://eatstreet-static.s3.amazonaws.com/assets/images/restaurant_logos/o-yummy-20780_1418413310591.png","name":"'O' Yummy","streetAddress":"182 Brighton Ave","city":"Allston","state":"MA","zip":"02134","foodTypes":["Japanese Food","Sushi","Chinese Food"],"phone":"(617) 254-8886","latitude":42.353076,"longitude":-71.133698,"minFreeDelivery":0.00,"taxRate":0.0700,"acceptsCash":true,"acceptsCard":true,"offersPickup":true,"offersDelivery":true,"isTestRestaurant":false,"minWaitTime":45,"maxWaitTime":60,"open":false,"url":"https://eatstreet.com/boston-ma/restaurants/o-yummy","hours":{"Monday":["11:30 AM - 10:45 PM"],"Saturday":["11:30 AM - 10:45 PM"],"Sunday":["11:30 AM - 10:45 PM"],"Wednesday":["11:30 AM - 10:45 PM"],"Friday":["11:30 AM - 10:45 PM"],"Thursday":["11:30 AM - 10:45 PM"]},"timezone":"US/Eastern"},{"apiKey":"ee3f841c5988f406884225aec137a02a0d70cfb390f4b692","deliveryMin":15.00,"logoUrl":"https://eatstreet-static.s3.amazonaws.com/assets/images/restaurant_logos/9-tastes-thai-cuisine-16477_1402944187620.png","name":"9 Tastes Thai Cuisine","streetAddress":"50 JFK St","city":"Cambridge","state":"MA","zip":"02138","foodTypes":["Thai"],"phone":"(617) 547-6666","latitude":42.3719321,"longitude":-71.1204285,"minFreeDelivery":0.00,"taxRate":0.0630,"acceptsCash":true,"acceptsCard":true,"offersPickup":true,"offersDelivery":true,"isTestRestaurant":false,"minWaitTime":45,"maxWaitTime":60,"open":false,"url":"https://eatstreet.com/boston-ma/restaurants/9-tastes-thai-cuisine","hours":{"Monday":["11:30 AM - 3:00 PM","5:00 PM - 9:45 PM"],"Saturday":["12:00 PM - 10:15 PM"],"Sunday":["12:00 PM - 9:45 PM"],"Wednesday":["11:30 AM - 3:00 PM","5:00 PM - 9:45 PM"],"Tuesday":["11:30 AM - 3:00 PM","5:00 PM - 9:45 PM"],"Friday":["11:30 AM - 3:00 PM","5:00 PM - 9:45 PM"],"Thursday":["11:30 AM - 3:00 PM","5:00 PM - 9:45 PM"]},"timezone":"US/Eastern"},{"apiKey":"ee3f841c5988f406884225aec137a02a7ee1bcd2dc55971d","deliveryMin":12.00,"deliveryPrice":2.00,"logoUrl":"https://eatstreet-static.s3.amazonaws.com/assets/images/restaurant_logos/alexandria-pizza-14900_1401910958403.png","name":"Alexandria Pizza","streetAddress":"1252 Washington St","city":"Boston","state":"MA","zip":"02465","foodTypes":["Pizza","Desserts","Chicken Wings"],"phone":"(617) 338-4440","latitude":42.342431,"longitude":-71.067516,"minFreeDelivery":0.00,"taxRate":0.0630,"acceptsCash":true,"acceptsCard":true,"offersPickup":true,"offersDelivery":true,"isTestRestaurant":false,"minWaitTime":45,"maxWaitTime":60,"open":true,"url":"https://eatstreet.com/boston-ma/restaurants/alexandria-pizza","hours":{"Monday":["10:30 AM - 3:40 AM"],"Saturday":["11:00 AM - 3:40 AM"],"Sunday":["11:00 AM - 3:40 AM"],"Wednesday":["10:30 AM - 3:40 AM"],"Tuesday":["10:30 AM - 3:40 AM"],"Friday":["10:30 AM - 3:40 AM"],"Thursday":["10:30 AM - 3:40 AM"]},"timezone":"US/Eastern"},{"apiKey":"ee3f841c5988f406884225aec137a02aacf5e7ab757ff906","deliveryMin":10.00,"logoUrl":"https://eatstreet-static.s3.amazonaws.com/assets/images/restaurant_logos/alfredos-italian-kitchen-somerville-12082_1418409938556.png","name":"Alfredo's Italian Kitchen - Somerville","streetAddress":"284 Broadway","city":"Somverville","state":"MA","zip":"02145","foodTypes":["Pizza","Italian Food","Italian"],"phone":"(617) 623-7746","latitude":42.391735,"longitude":-71.092022,"minFreeDelivery":0.00,"taxRate":0.0630,"acceptsCash":true,"acceptsCard":true,"offersPickup":true,"offersDelivery":true,"isTestRestaurant":false,"minWaitTime":45,"maxWaitTime":60,"open":false,"url":"https://eatstreet.com/boston-ma/restaurants/alfredos-italian-kitchen-somerville","hours":{"Monday":["11:00 AM - 9:30 PM"],"Saturday":["11:00 AM - 10:30 PM"],"Sunday":["11:00 AM - 9:30 PM"],"Wednesday":["11:00 AM - 9:30 PM"],"Tuesday":["11:00 AM - 9:30 PM"],"Friday":["11:00 AM - 10:30 PM"],"Thursday":["11:00 AM - 9:30 PM"]},"timezone":"US/Eastern"},{"apiKey":"ee3f841c5988f406884225aec137a02ae97ff0218197cc20","deliveryMin":25.00,"deliveryPrice":4.00,"logoUrl":"https://eatstreet-static.s3.amazonaws.com/assets/images/restaurant_logos/ali-baba-10302_1396633239188.png","name":"Ali Baba","streetAddress":"145 East Berkeley St Boston, Massachusetts 02118","city":"Boston","state":"MA","zip":"02118","foodTypes":["Turkish Food","Turkish"],"phone":"(617) 482-0654","latitude":42.343613,"longitude":-71.064816,"minFreeDelivery":0.00,"taxRate":0.0630,"acceptsCash":false,"acceptsCard":true,"offersPickup":true,"offersDelivery":true,"isTestRestaurant":false,"minWaitTime":45,"maxWaitTime":60,"open":true,"url":"https://eatstreet.com/boston-ma/restaurants/ali-baba-boston","hours":{"Monday":["11:00 AM - 10:00 PM"],"Saturday":["11:00 AM - 4:30 AM"],"Sunday":["11:00 AM - 10:30 PM"],"Wednesday":["11:00 AM - 10:00 PM"],"Tuesday":["11:00 AM - 10:00 PM"],"Friday":["11:00 AM - 4:30 AM"],"Thursday":["11:00 AM - 4:30 AM"]},"timezone":"US/Eastern"},{"apiKey":"ee3f841c5988f406144247b91fbcb2f37ddc2eba8dfab49d","deliveryMin":20.00,"logoUrl":"https://eatstreet-static.s3.amazonaws.com/assets/images/restaurant_logos/aman-palace-22114_1409279670178.png","name":"Aman Palace","streetAddress":"63 Union Square","city":"Somerville","state":"MA","zip":"02143","foodTypes":["Indian Food",""],"phone":"(617) 776-7617","latitude":42.388023,"longitude":-71.0780611,"minFreeDelivery":0.00,"taxRate":0.0625,"acceptsCash":true,"acceptsCard":true,"offersPickup":true,"offersDelivery":true,"isTestRestaurant":false,"minWaitTime":45,"maxWaitTime":60,"open":false,"url":"https://eatstreet.com/boston-ma/restaurants/aman-palace","hours":{"Monday":["11:00 AM - 10:45 PM"],"Saturday":["11:00 AM - 10:45 PM"],"Sunday":["11:00 AM - 10:45 PM"],"Wednesday":["11:00 AM - 10:45 PM"],"Tuesday":["11:00 AM - 10:45 PM"],"Friday":["11:00 AM - 10:45 PM"],"Thursday":["11:00 AM - 10:45 PM"]},"timezone":"US/Eastern"},{"apiKey":"ee3f841c5988f406884225aec137a02ab6522832d012cfbd","deliveryMin":50.00,"deliveryPrice":6.95,"logoUrl":"https://eatstreet-static.s3.amazonaws.com/assets/images/restaurant_logos/angora-cafe-10292_1397247556921.png","name":"Angora Cafe","streetAddress":"1024 A Commonwealth Ave","city":"Boston","state":"MA","zip":"02215","foodTypes":["Cafe","Cafes","Sandwiches","Ice Cream & Frozen Yogurt"],"phone":"(617) 232-1757","latitude":42.351639,"longitude":-71.121797,"minFreeDelivery":0.00,"taxRate":0.0630,"acceptsCash":false,"acceptsCard":true,"offersPickup":true,"offersDelivery":true,"isTestRestaurant":false,"minWaitTime":45,"maxWaitTime":70,"open":false,"url":"https://eatstreet.com/boston-ma/restaurants/angora-cafe","hours":{"Monday":["8:00 AM - 12:00 AM"],"Saturday":["9:00 AM - 12:00 AM"],"Sunday":["9:00 AM - 12:00 AM"],"Wednesday":["8:00 AM - 12:00 AM"],"Tuesday":["8:00 AM - 12:00 AM"],"Friday":["9:00 AM - 12:00 AM"],"Thursday":["8:00 AM - 12:00 AM"]},"timezone":"US/Eastern"},{"apiKey":"ee3f841c5988f406f15b4f2e73e761808fd44b963586229d","deliveryMin":10.00,"logoUrl":"https://eatstreet-static.s3.amazonaws.com/assets/images/restaurant_logos/annies-pizzeria-32470_1440367400218.png","name":"Annie's Pizzeria","streetAddress":"213 Middlesex Ave","city":"Medford","state":"MA","zip":"02155","foodTypes":["Pizza"],"phone":"(781) 219-3731","latitude":42.409846,"longitude":-71.079543,"minFreeDelivery":0.00,"taxRate":0.0625,"acceptsCash":true,"acceptsCard":true,"offersPickup":true,"offersDelivery":true,"isTestRestaurant":false,"minWaitTime":45,"maxWaitTime":60,"open":false,"url":"https://eatstreet.com/boston-ma/restaurants/annies-pizzeria","hours":{"Monday":["11:00 AM - 10:00 PM"],"Saturday":["11:00 AM - 10:00 PM"],"Wednesday":["11:00 AM - 10:00 PM"],"Tuesday":["11:00 AM - 10:00 PM"],"Friday":["11:00 AM - 10:00 PM"],"Thursday":["11:00 AM - 10:00 PM"]},"timezone":"US/Eastern"},{"apiKey":"ee3f841c5988f406884225aec137a02a661f944228a38c4d","deliveryMin":14.99,"logoUrl":"https://eatstreet-static.s3.amazonaws.com/assets/images/restaurant_logos/arizona-bbq-house-of-pizza-17682_1404934004375.png","name":"Arizona BBQ House of Pizza","streetAddress":"2360 Washington St","city":"Roxbury","state":"MA","zip":"02119","foodTypes":["BBQ",""],"phone":"(617) 442-2999","latitude":42.32937,"longitude":-71.084458,"minFreeDelivery":0.00,"taxRate":0.0630,"acceptsCash":true,"acceptsCard":true,"offersPickup":true,"offersDelivery":true,"isTestRestaurant":false,"minWaitTime":45,"maxWaitTime":60,"open":false,"url":"https://eatstreet.com/boston-ma/restaurants/arizona-bbq-house-of-pizza","hours":{"Monday":["6:00 PM - 11:40 PM"],"Saturday":["6:00 PM - 11:40 PM"],"Sunday":["6:00 PM - 11:40 PM"],"Wednesday":["6:00 PM - 11:40 PM"],"Tuesday":["6:00 PM - 11:40 PM"],"Friday":["6:00 PM - 11:40 PM"],"Thursday":["6:00 PM - 11:40 PM"]},"timezone":"US/Eastern"},{"apiKey":"ee3f841c5988f406884225aec137a02adcbc1d89c7e4a317","deliveryMin":10.00,"logoUrl":"https://eatstreet-static.s3.amazonaws.com/assets/images/restaurant_logos/asia-wok-16179_1401994342293.png","name":"Asia Wok","streetAddress":"44 Harvard Ave.","city":"Allston","state":"MA","zip":"02134","foodTypes":["Chinese Food","Chinese"],"phone":"(617) 254-5445","latitude":42.354578,"longitude":-71.13238,"minFreeDelivery":0.00,"taxRate":0.0630,"acceptsCash":true,"acceptsCard":true,"offersPickup":true,"offersDelivery":true,"isTestRestaurant":false,"minWaitTime":45,"maxWaitTime":60,"open":false,"url":"https://eatstreet.com/boston-ma/restaurants/asia-wok","hours":{"Monday":["11:15 AM - 10:30 PM"],"Saturday":["11:15 AM - 11:00 PM"],"Sunday":["12:15 PM - 10:30 PM"],"Wednesday":["11:15 AM - 10:30 PM"],"Friday":["11:15 AM - 11:00 PM"],"Thursday":["11:15 AM - 10:30 PM"]},"timezone":"US/Eastern"},{"apiKey":"ee3f841c5988f406f15b4f2e73e76180c4c5a2cee113313e","deliveryMin":20.00,"deliveryPrice":2.00,"logoUrl":"https://eatstreet-static.s3.amazonaws.com/assets/images/restaurant_logos/avana-sushi-ii-35187_1453241747220.png","name":"Avana Sushi II","streetAddress":"58 Franklin St","city":"Boston","state":"MA","zip":"02110","foodTypes":["Sushi","Asian","Japanese","Sushi Bars"],"phone":"(617) 423-5000","latitude":42.35573,"longitude":-71.05844,"minFreeDelivery":0.00,"taxRate":0.0625,"acceptsCash":true,"acceptsCard":true,"offersPickup":true,"offersDelivery":true,"isTestRestaurant":false,"minWaitTime":45,"maxWaitTime":60,"open":false,"url":"https://eatstreet.com/boston-ma/restaurants/avana-sushi-2","hours":{"Monday":["11:00 AM - 10:00 PM"],"Saturday":["11:00 AM - 10:00 PM"],"Wednesday":["11:00 AM - 10:00 PM"],"Tuesday":["11:00 AM - 10:00 PM"],"Friday":["11:00 AM - 10:00 PM"],"Thursday":["11:00 AM - 10:00 PM"]},"timezone":"US/Eastern"},{"apiKey":"ee3f841c5988f406884225aec137a02aaf1c2380d8522a56","deliveryMin":12.00,"logoUrl":"https://eatstreet-static.s3.amazonaws.com/assets/images/restaurant_logos/azama-grill-16176_1402092149664.png","name":"Azama Grill","streetAddress":"54 Harvard Ave","city":"Allston","state":"MA","zip":"02134","foodTypes":["Lamb","Middle Eastern Food","Mediterranean Food","Halal","Middle Eastern"],"phone":"(617) 779-0003","latitude":42.354418,"longitude":-71.132335,"minFreeDelivery":0.00,"taxRate":0.0630,"acceptsCash":true,"acceptsCard":true,"offersPickup":true,"offersDelivery":true,"isTestRestaurant":false,"minWaitTime":45,"maxWaitTime":60,"open":true,"url":"https://eatstreet.com/boston-ma/restaurants/azama-grill","hours":{"Monday":["5:00 PM - 1:45 AM"],"Saturday":["5:00 PM - 1:45 AM"],"Sunday":["5:00 PM - 1:45 AM"],"Wednesday":["5:00 PM - 1:45 AM"],"Tuesday":["5:00 PM - 1:45 AM"],"Friday":["5:00 PM - 1:45 AM"],"Thursday":["5:00 PM - 1:45 AM"]},"timezone":"US/Eastern"},{"apiKey":"ee3f841c5988f406884225aec137a02ac5e1320c1c059fc5","deliveryMin":20.00,"deliveryPrice":2.99,"logoUrl":"https://eatstreet-static.s3.amazonaws.com/assets/images/restaurant_logos/bck-express-16395_1402685119987.png","name":"BCK Express","streetAddress":"28 Damrell St., Ste 107","city":"Boston","state":"MA","zip":"02127","foodTypes":["Pizza",""],"phone":"(617) 268-0106","latitude":42.333043,"longitude":-71.055782,"minFreeDelivery":0.00,"taxRate":0.0630,"acceptsCash":true,"acceptsCard":true,"offersPickup":false,"offersDelivery":true,"isTestRestaurant":false,"minWaitTime":45,"maxWaitTime":60,"open":false,"url":"https://eatstreet.com/boston-ma/restaurants/bck-express","hours":{"Monday":["11:00 AM - 11:00 PM"],"Saturday":["11:00 AM - 11:00 PM"],"Sunday":["12:00 PM - 11:00 PM"],"Wednesday":["11:00 AM - 11:00 PM"],"Tuesday":["11:00 AM - 11:00 PM"],"Friday":["11:00 AM - 11:00 PM"],"Thursday":["11:00 AM - 11:00 PM"]},"timezone":"US/Eastern"},{"apiKey":"ee3f841c5988f406144247b91fbcb2f3812e03079818e22c","deliveryMin":20.00,"logoUrl":"https://eatstreet-static.s3.amazonaws.com/assets/images/restaurant_logos/bao-nation-26758_1422393341562.png","name":"Bao Nation","streetAddress":"575 Massachusetts Avenue","city":"Cambridge","state":"MA","zip":"02139","foodTypes":["Asian Food","Fusion","Asian Fusion","Taiwanese"],"phone":"(617) 547-0295","latitude":42.365013,"longitude":-71.102406,"minFreeDelivery":0.00,"taxRate":0.0625,"acceptsCash":false,"acceptsCard":true,"offersPickup":true,"offersDelivery":true,"isTestRestaurant":false,"minWaitTime":45,"maxWaitTime":60,"open":false,"url":"https://eatstreet.com/boston-ma/restaurants/bao-nation","hours":{"Monday":["11:00 AM - 9:30 PM"],"Saturday":["11:00 AM - 9:30 PM"],"Sunday":["11:00 AM - 9:30 PM"],"Wednesday":["11:00 AM - 9:30 PM"],"Tuesday":["11:00 AM - 9:30 PM"],"Friday":["11:00 AM - 9:30 PM"],"Thursday":["11:00 AM - 9:30 PM"]},"timezone":"US/Eastern"},{"apiKey":"ee3f841c5988f406144247b91fbcb2f30e6a1b6a7d75d0de","deliveryMin":15.00,"logoUrl":"https://eatstreet-static.s3.amazonaws.com/assets/images/restaurant_logos/barbeque-international-23416_1411422836246.png","name":"Barbeque International","streetAddress":"40 Bow St","city":"Somerville","state":"MA","zip":"02143","foodTypes":["Pizza","Fusion","BBQ","Indian Food"],"phone":"(617) 623-9068","latitude":42.381495,"longitude":-71.097896,"minFreeDelivery":0.00,"taxRate":0.0625,"acceptsCash":true,"acceptsCard":true,"offersPickup":true,"offersDelivery":true,"isTestRestaurant":false,"minWaitTime":45,"maxWaitTime":60,"open":false,"url":"https://eatstreet.com/boston-ma/restaurants/barbeque-international","hours":{"Monday":["11:00 AM - 9:45 PM"],"Saturday":["11:00 AM - 10:45 PM"],"Sunday":["12:00 PM - 9:45 PM"],"Wednesday":["11:00 AM - 9:45 PM"],"Tuesday":["11:00 AM - 9:45 PM"],"Friday":["11:00 AM - 10:45 PM"],"Thursday":["11:00 AM - 9:45 PM"]},"timezone":"US/Eastern"},{"apiKey":"ee3f841c5988f406144247b91fbcb2f39b68196c56068d3a","deliveryMin":15.00,"logoUrl":"https://eatstreet-static.s3.amazonaws.com/assets/images/restaurant_logos/basil-rice-21952_1408663557858.png","name":"Basil Rice","streetAddress":"479 Harvard St","city":"Bookline","state":"MA","zip":"02446","foodTypes":["Asian Food","Fusion","Thai Food"],"phone":"(617) 608-3563","latitude":42.3472658,"longitude":-71.1284043,"minFreeDelivery":0.00,"taxRate":0.0625,"acceptsCash":false,"acceptsCard":true,"offersPickup":true,"offersDelivery":true,"isTestRestaurant":false,"minWaitTime":45,"maxWaitTime":60,"open":false,"url":"https://eatstreet.com/boston-ma/restaurants/basil-rice","hours":{"Monday":["11:00 AM - 9:45 PM"],"Saturday":["11:00 AM - 9:45 PM"],"Sunday":["11:00 AM - 9:45 PM"],"Wednesday":["11:00 AM - 9:45 PM"],"Tuesday":["11:00 AM - 9:45 PM"],"Friday":["11:00 AM - 9:45 PM"],"Thursday":["11:00 AM - 9:45 PM"]},"timezone":"US/Eastern"},{"apiKey":"ee3f841c5988f406fe2bbabe6b94d9a6be2580c4f33df332","deliveryMin":9.00,"logoUrl":"https://eatstreet-static.s3.amazonaws.com/assets/images/restaurant_logos/dial-a-pizza-8862_1393617868675.png","name":"Beacon Street Pizza","streetAddress":"147 Beacon St","city":"Somerville","state":"MA","zip":"02143","foodTypes":["Pizza"],"phone":"(617) 868-6100","latitude":42.378852,"longitude":-71.106709,"minFreeDelivery":0.00,"taxRate":0.0630,"acceptsCash":true,"acceptsCard":true,"offersPickup":true,"offersDelivery":true,"isTestRestaurant":false,"minWaitTime":45,"maxWaitTime":60,"open":false,"url":"https://eatstreet.com/boston-ma/restaurants/beacon-street-pizza","hours":{"Monday":["5:00 PM - 11:00 PM"],"Saturday":["5:00 PM - 11:00 PM"],"Sunday":["5:00 PM - 11:00 PM"],"Wednesday":["5:00 PM - 11:00 PM"],"Tuesday":["5:00 PM - 11:00 PM"],"Friday":["5:00 PM - 11:00 PM"],"Thursday":["5:00 PM - 11:00 PM"]},"timezone":"US/Eastern"},{"apiKey":"ee3f841c5988f406884225aec137a02ac292d4ccea4ffdd8","deliveryMin":15.00,"deliveryPrice":3.00,"logoUrl":"https://eatstreet-static.s3.amazonaws.com/assets/images/restaurant_logos/beantown-taqueria-10359_1418413571673.png","name":"Beantown Taqueria","streetAddress":"245 Massachusetts Ave","city":"Cambridge","state":"MA","zip":"02474","foodTypes":["Mexican Food","Mexican"],"phone":"(617) 441-8689","latitude":42.361631,"longitude":-71.097364,"minFreeDelivery":0.00,"taxRate":0.0630,"acceptsCash":false,"acceptsCard":true,"offersPickup":true,"offersDelivery":true,"isTestRestaurant":false,"minWaitTime":45,"maxWaitTime":60,"open":true,"url":"https://eatstreet.com/boston-ma/restaurants/beantown-taqueria","hours":{"Monday":["8:00 AM - 11:00 PM"],"Saturday":["8:00 AM - 4:00 AM"],"Sunday":["8:00 AM - 11:00 PM"],"Wednesday":["8:00 AM - 11:00 PM"],"Tuesday":["8:00 AM - 11:00 PM"],"Friday":["8:00 AM - 4:00 AM"],"Thursday":["8:00 AM - 4:00 AM"]},"timezone":"US/Eastern"},{"apiKey":"ee3f841c5988f406f15b4f2e73e761801ee0d7f4889fdca5","deliveryMin":15.00,"deliveryPrice":3.00,"logoUrl":"https://eatstreet-static.s3.amazonaws.com/assets/images/restaurant_logos/bishops-mediterranean-31928_1437699769809.png","name":"Bishop's Mediterranean","streetAddress":"70 Staniford St","city":"Boston","state":"MA","zip":"02114","foodTypes":["Mediterranean Food","Mediterranean"],"phone":"(617) 742-3300","latitude":42.363104,"longitude":-71.063997,"minFreeDelivery":0.00,"taxRate":0.0625,"acceptsCash":true,"acceptsCard":true,"offersPickup":true,"offersDelivery":true,"isTestRestaurant":false,"minWaitTime":45,"maxWaitTime":60,"open":false,"url":"https://eatstreet.com/boston-ma/restaurants/bishops-mediterranean","hours":{"Monday":["11:00 AM - 8:00 PM"],"Wednesday":["11:00 AM - 8:00 PM"],"Tuesday":["11:00 AM - 8:00 PM"],"Friday":["11:00 AM - 7:30 PM"],"Thursday":["11:00 AM - 8:00 PM"]},"timezone":"US/Eastern"},{"apiKey":"ee3f841c5988f406fe2bbabe6b94d9a6f7b932be0fd17485","deliveryMin":12.00,"deliveryPrice":0.00,"logoUrl":"https://eatstreet-static.s3.amazonaws.com/assets/images/restaurant_logos/black-jack-pasta-8640_1393268973255.png","name":"Black Jack Pasta","streetAddress":"52 Queensberry St","city":"Boston","state":"MA","zip":"02215","foodTypes":["Subs & Sandwiches","Gluten Free","Italian Food","Italian","Gluten-Free","Sandwiches"],"phone":"(617) 266-1313","latitude":42.342658,"longitude":-71.097306,"minFreeDelivery":0.00,"taxRate":0.0630,"acceptsCash":true,"acceptsCard":true,"offersPickup":true,"offersDelivery":true,"isTestRestaurant":false,"minWaitTime":45,"maxWaitTime":60,"open":false,"url":"https://eatstreet.com/boston-ma/restaurants/black-jack-pasta","hours":{"Monday":["11:00 AM - 12:00 AM"],"Saturday":["12:00 PM - 11:00 PM"],"Sunday":["12:00 PM - 12:00 AM"],"Wednesday":["11:00 AM - 12:00 AM"],"Tuesday":["11:00 AM - 12:00 AM"],"Friday":["11:00 AM - 12:00 AM"],"Thursday":["11:00 AM - 12:00 AM"]},"timezone":"US/Eastern"},{"apiKey":"ee3f841c5988f406884225aec137a02a1114058d70605c94","deliveryMin":20.00,"logoUrl":"https://eatstreet-static.s3.amazonaws.com/assets/images/restaurant_logos/bon-chon-cambridge-12167_1418415068687.png","name":"Bon Chon - Cambridge","streetAddress":"57 John F. Kennedy St","city":"Cambridge","state":"MA","zip":"02138","foodTypes":["Wings","Fusion","Korean Food","BBQ","Korean","Chicken Wings","Asian Fusion"],"phone":"(617) 868-0981","latitude":42.372076,"longitude":-71.120857,"minFreeDelivery":0.00,"taxRate":0.0630,"acceptsCash":true,"acceptsCard":true,"offersPickup":true,"offersDelivery":true,"isTestRestaurant":false,"minWaitTime":45,"maxWaitTime":60,"open":false,"url":"https://eatstreet.com/boston-ma/restaurants/bon-chon-cambridge","hours":{"Monday":["12:00 PM - 10:15 PM"],"Saturday":["12:00 PM - 10:15 PM"],"Sunday":["12:00 PM - 10:15 PM"],"Wednesday":["12:00 PM - 10:15 PM"],"Tuesday":["12:00 PM - 10:15 PM"],"Friday":["12:00 PM - 10:15 PM"],"Thursday":["12:00 PM - 10:15 PM"]},"timezone":"US/Eastern"},{"apiKey":"ee3f841c5988f406884225aec137a02a5c16a232b26e2ba3","logoUrl":"https://eatstreet-static.s3.amazonaws.com/assets/images/restaurant_logos/boston-shawarma-14893_1418415585948.png","name":"Boston Shawarma","streetAddress":"315 Huntington Ave","city":"Boston","state":"MA","zip":"02120","foodTypes":["Subs & Sandwiches","Lebanese Food","Mediterranean Food","Halal","Mediterranean"],"phone":"(617) 670-0460","latitude":42.341035,"longitude":-71.087664,"minFreeDelivery":0.00,"taxRate":0.0630,"acceptsCash":true,"acceptsCard":true,"offersPickup":true,"offersDelivery":false,"isTestRestaurant":false,"minWaitTime":45,"maxWaitTime":60,"open":false,"url":"https://eatstreet.com/boston-ma/restaurants/boston-shawarma","hours":{"Monday":["10:30 AM - 10:30 PM"],"Saturday":["10:30 AM - 10:30 PM"],"Sunday":["10:30 AM - 10:30 PM"],"Wednesday":["10:30 AM - 10:30 PM"],"Tuesday":["10:30 AM - 10:30 PM"],"Friday":["10:30 AM - 10:30 PM"],"Thursday":["10:30 AM - 10:30 PM"]},"timezone":"US/Eastern"},{"apiKey":"ee3f841c5988f406144247b91fbcb2f3f81cf727a9e1ddaa","deliveryMin":10.00,"logoUrl":"https://eatstreet-static.s3.amazonaws.com/assets/images/restaurant_logos/boston-shawarma-2-24902_1415025144745.png","name":"Boston Shawarma 2","streetAddress":"226 Washington St","city":"Boston","state":"MA","zip":"02115","foodTypes":["Middle Eastern Food","Mediterranean Food"],"phone":"(617) 722-9755","latitude":42.358285,"longitude":-71.05792,"minFreeDelivery":0.00,"taxRate":0.0625,"acceptsCash":true,"acceptsCard":true,"offersPickup":true,"offersDelivery":false,"isTestRestaurant":false,"minWaitTime":45,"maxWaitTime":60,"open":false,"url":"https://eatstreet.com/boston-ma/restaurants/boston-shawarma-2","hours":{"Monday":["4:00 PM - 11:00 PM"],"Saturday":["4:00 PM - 11:00 PM"],"Sunday":["4:00 PM - 11:00 PM"],"Wednesday":["4:00 PM - 11:00 PM"],"Tuesday":["4:00 PM - 11:00 PM"],"Friday":["4:00 PM - 11:00 PM"],"Thursday":["4:00 PM - 11:00 PM"]},"timezone":"US/Eastern"},{"apiKey":"ee3f841c5988f406884225aec137a02ad18853a629f23c36","deliveryMin":15.00,"logoUrl":"https://eatstreet-static.s3.amazonaws.com/assets/images/restaurant_logos/brookline-family-restaurant-10061_1418417373546.png","name":"Brookline Family Restaurant","streetAddress":"305 Washington St","city":"Brookline","state":"MA","zip":"02445","foodTypes":["Turkish Food","Turkish"],"phone":"(617) 277-4466","latitude":42.333381,"longitude":-71.119631,"minFreeDelivery":0.00,"taxRate":0.0630,"acceptsCash":true,"acceptsCard":true,"offersPickup":true,"offersDelivery":true,"isTestRestaurant":false,"minWaitTime":45,"maxWaitTime":60,"open":false,"url":"https://eatstreet.com/boston-ma/restaurants/brookline-family-restaurant","hours":{"Monday":["10:00 AM - 10:00 PM"],"Saturday":["8:00 AM - 11:00 PM"],"Sunday":["8:00 AM - 10:00 PM"],"Wednesday":["10:00 AM - 10:00 PM"],"Tuesday":["10:00 AM - 10:00 PM"],"Friday":["10:00 AM - 10:00 PM"],"Thursday":["10:00 AM - 10:00 PM"]},"timezone":"US/Eastern"},{"apiKey":"ee3f841c5988f40665357bbaef9033f471a8fb50e4d16ce3","deliveryMin":10.00,"logoUrl":"https://eatstreet-static.s3.amazonaws.com/assets/images/restaurant_logos/cafe-472-9465_1418418024058.png","name":"Cafe 472","streetAddress":"472 Commonwealth Avenue","city":"Boston","state":"MA","zip":"02215","foodTypes":["Pizza","Cafe"],"phone":"(617) 236-4949","latitude":42.336159,"longitude":-71.103159,"minFreeDelivery":0.00,"taxRate":0.0630,"acceptsCash":true,"acceptsCard":true,"offersPickup":true,"offersDelivery":true,"isTestRestaurant":false,"minWaitTime":45,"maxWaitTime":60,"open":false,"url":"https://eatstreet.com/boston-ma/restaurants/cafe-472","hours":{"Monday":["10:30 AM - 11:45 PM"],"Saturday":["10:30 AM - 11:45 PM"],"Sunday":["10:30 AM - 11:45 PM"],"Wednesday":["10:30 AM - 11:45 PM"],"Tuesday":["10:30 AM - 11:45 PM"],"Friday":["10:30 AM - 11:45 PM"],"Thursday":["10:30 AM - 11:45 PM"]},"timezone":"US/Eastern"},{"apiKey":"ee3f841c5988f406884225aec137a02aabde9276989eff10","deliveryMin":15.00,"logoUrl":"https://eatstreet-static.s3.amazonaws.com/assets/images/restaurant_logos/cafe-podima-14901_1401911005117.png","name":"Cafe Podima","streetAddress":"168 Cambridge St","city":"Boston","state":"MA","zip":"01890","foodTypes":["Subs & Sandwiches","Pizza","Sandwiches"],"phone":"(617) 227-4959","latitude":42.35875,"longitude":-71.123735,"minFreeDelivery":0.00,"taxRate":0.0630,"acceptsCash":true,"acceptsCard":true,"offersPickup":true,"offersDelivery":true,"isTestRestaurant":false,"minWaitTime":45,"maxWaitTime":60,"open":false,"url":"https://eatstreet.com/boston-ma/restaurants/cafe-podima","hours":{"Monday":["10:30 AM - 10:30 PM"],"Saturday":["10:30 AM - 10:30 PM"],"Sunday":["10:30 AM - 10:30 PM"],"Wednesday":["10:30 AM - 10:30 PM"],"Tuesday":["10:30 AM - 10:30 PM"],"Friday":["10:30 AM - 10:30 PM"],"Thursday":["10:30 AM - 10:30 PM"]},"timezone":"US/Eastern"},{"apiKey":"ee3f841c5988f406ab9b56a2a4d9fc14bbbc29aa836ec9da","deliveryMin":13.00,"logoUrl":"https://eatstreet-static.s3.amazonaws.com/assets/images/restaurant_logos/cappys-pizza-6165_1377199926992.png","name":"Cappy's Pizza","streetAddress":"82 Westland Ave","city":"Boston","state":"MA","zip":"02115","foodTypes":["Seafood","Pizza","Breakfast","Breakfast & Brunch"],"phone":"(617) 247-8801","latitude":42.343886,"longitude":-71.089534,"minFreeDelivery":-1.0000,"taxRate":0.0700,"acceptsCash":true,"acceptsCard":true,"offersPickup":true,"offersDelivery":true,"isTestRestaurant":false,"minWaitTime":45,"maxWaitTime":60,"open":false,"url":"https://eatstreet.com/boston-ma/restaurants/cappys-pizza","hours":{"Monday":["9:00 AM - 1:30 AM"],"Saturday":["9:00 AM - 1:30 AM"],"Sunday":["9:00 AM - 1:30 AM"],"Wednesday":["9:00 AM - 1:30 AM"],"Tuesday":["9:00 AM - 1:30 AM"],"Friday":["9:00 AM - 1:30 AM"],"Thursday":["9:00 AM - 1:30 AM"]},"timezone":"US/Eastern"},{"apiKey":"ee3f841c5988f406144247b91fbcb2f34b23302223e90050","deliveryMin":15.00,"logoUrl":"https://eatstreet-static.s3.amazonaws.com/assets/images/restaurant_logos/chilli-duck-22975_1418420112576.png","name":"Chilli Duck","streetAddress":"829 Boylston St.","city":"Boston","state":"MA","zip":"02116","foodTypes":["Thai Food"],"phone":"(617) 236-5208","latitude":42.34891,"longitude":-71.082641,"minFreeDelivery":0.00,"taxRate":0.0625,"acceptsCash":true,"acceptsCard":true,"offersPickup":true,"offersDelivery":true,"isTestRestaurant":false,"minWaitTime":45,"maxWaitTime":60,"open":false,"url":"https://eatstreet.com/boston-ma/restaurants/chilli-duck","hours":{"Monday":["11:30 AM - 9:45 PM"],"Saturday":["12:00 PM - 10:15 PM"],"Sunday":["12:00 PM - 9:45 PM"],"Wednesday":["11:30 AM - 9:45 PM"],"Tuesday":["11:30 AM - 9:45 PM"],"Friday":["11:30 AM - 10:15 PM"],"Thursday":["11:30 AM - 9:45 PM"]},"timezone":"US/Eastern"},{"apiKey":"ee3f841c5988f40665357bbaef9033f44bbf2bd8bffbd31c","deliveryMin":12.00,"logoUrl":"https://eatstreet-static.s3.amazonaws.com/assets/images/restaurant_logos/cinderellas-restaurant-9533_1395852885152.png","name":"Cinderella's Restaurant","streetAddress":"901 Main St","city":"Cambridge","state":"MA","zip":"02670","foodTypes":["Pizza","Italian Food","Italian"],"phone":"(617) 576-0280","latitude":42.36344,"longitude":-71.099569,"minFreeDelivery":0.00,"taxRate":0.0630,"acceptsCash":true,"acceptsCard":true,"offersPickup":true,"offersDelivery":true,"isTestRestaurant":false,"minWaitTime":45,"maxWaitTime":60,"open":true,"url":"https://eatstreet.com/boston-ma/restaurants/cinderellas-restaurant","hours":{"Monday":["11:00 AM - 12:40 AM"],"Saturday":["11:00 AM - 1:40 AM"],"Sunday":["11:00 AM - 12:40 AM"],"Wednesday":["11:00 AM - 12:40 AM"],"Tuesday":["11:00 AM - 12:40 AM"],"Friday":["11:00 AM - 1:40 AM"],"Thursday":["11:00 AM - 1:40 AM"]},"timezone":"US/Eastern"},{"apiKey":"ee3f841c5988f406884225aec137a02a3bd7a92adb3e8eff","deliveryMin":15.00,"deliveryPrice":2.00,"logoUrl":"https://eatstreet-static.s3.amazonaws.com/assets/images/restaurant_logos/code-10-14719_1401893336157.png","name":"Code 10","streetAddress":"1638 Washington St","city":"Boston","state":"MA","zip":"02465","foodTypes":["Sandwiches","Delis"],"phone":"(617) 375-6333","latitude":42.337918,"longitude":-71.074745,"minFreeDelivery":0.00,"taxRate":0.0700,"acceptsCash":true,"acceptsCard":true,"offersPickup":true,"offersDelivery":true,"isTestRestaurant":false,"minWaitTime":45,"maxWaitTime":60,"open":false,"url":"https://eatstreet.com/boston-ma/restaurants/code-10","hours":{"Monday":["10:30 AM - 9:00 PM"],"Saturday":["10:30 AM - 9:00 PM"],"Sunday":["10:30 AM - 8:45 PM"],"Wednesday":["10:30 AM - 9:00 PM"],"Tuesday":["10:30 AM - 9:00 PM"],"Friday":["10:30 AM - 9:00 PM"],"Thursday":["10:30 AM - 9:00 PM"]},"timezone":"US/Eastern"},{"apiKey":"ee3f841c5988f406884225aec137a02a5189e0a0a7d1c23f","deliveryMin":10.00,"logoUrl":"https://eatstreet-static.s3.amazonaws.com/assets/images/restaurant_logos/cookin-cafe-and-grille-16438_1402692025024.png","name":"Cookin Cafe & Grille","streetAddress":"1096 Commonwealth Ave","city":"Boston","state":"MA","zip":"02215","foodTypes":["Deli","Diner Food","Diners","Breakfast & Brunch","Cafes"],"phone":"(617) 566-4144","latitude":42.351823,"longitude":-71.124304,"minFreeDelivery":0.00,"taxRate":0.0630,"acceptsCash":true,"acceptsCard":true,"offersPickup":true,"offersDelivery":true,"isTestRestaurant":false,"minWaitTime":45,"maxWaitTime":60,"open":false,"url":"https://eatstreet.com/boston-ma/restaurants/cookin-cafe-and-grille","hours":{"Monday":["7:00 AM - 10:45 PM"],"Saturday":["7:00 AM - 10:45 PM"],"Sunday":["7:00 AM - 10:45 PM"],"Wednesday":["7:00 AM - 10:45 PM"],"Tuesday":["7:00 AM - 10:45 PM"],"Friday":["7:00 AM - 10:45 PM"],"Thursday":["7:00 AM - 10:45 PM"]},"timezone":"US/Eastern"},{"apiKey":"ee3f841c5988f406fe2bbabe6b94d9a652124ad1190ce8c1","deliveryMin":20.00,"deliveryPrice":4.00,"logoUrl":"https://eatstreet-static.s3.amazonaws.com/assets/images/restaurant_logos/curry-house-8860_1393616951121.png","name":"Curry House","streetAddress":"1335 Beacon St","city":"Brookline","state":"MA","zip":"02468","foodTypes":["Vegetarian","Halal","Indian Food","Indian"],"phone":"(617) 734-3971","latitude":42.3417232,"longitude":-71.1215426,"minFreeDelivery":0.00,"taxRate":0.0630,"acceptsCash":true,"acceptsCard":true,"offersPickup":true,"offersDelivery":true,"isTestRestaurant":false,"minWaitTime":45,"maxWaitTime":60,"open":false,"url":"https://eatstreet.com/boston-ma/restaurants/curry-house-brookline","hours":{"Monday":["10:00 AM - 9:30 PM"],"Saturday":["10:00 AM - 9:30 PM"],"Sunday":["10:00 AM - 9:00 PM"],"Wednesday":["10:00 AM - 9:30 PM"],"Tuesday":["10:00 AM - 9:30 PM"],"Friday":["10:00 AM - 9:30 PM"],"Thursday":["10:00 AM - 9:30 PM"]},"timezone":"US/Eastern"},{"apiKey":"ee3f841c5988f406884225aec137a02aaeb683513e618971","deliveryMin":50.00,"deliveryPrice":5.00,"logoUrl":"https://eatstreet-static.s3.amazonaws.com/assets/images/restaurant_logos/darbar-halal-cuisine-14877_1401909951223.png","name":"Darbar Halal Cuisine","streetAddress":"130 North Beacon St.","city":"Brighton","state":"MA","zip":"02135","foodTypes":["Halal","Pakistani Food","Indian Food","Pakistani","Indian"],"phone":"(617) 779-8800","latitude":42.354973,"longitude":-71.144736,"minFreeDelivery":0.00,"taxRate":0.0630,"acceptsCash":true,"acceptsCard":true,"offersPickup":true,"offersDelivery":true,"isTestRestaurant":false,"minWaitTime":45,"maxWaitTime":60,"open":false,"url":"https://eatstreet.com/boston-ma/restaurants/darbar-halal-cuisine","hours":{"Monday":["1:00 PM - 10:30 PM"],"Saturday":["1:00 PM - 10:30 PM"],"Sunday":["1:00 PM - 10:30 PM"],"Wednesday":["1:00 PM - 10:30 PM"],"Tuesday":["1:00 PM - 10:30 PM"],"Friday":["1:00 PM - 10:30 PM"],"Thursday":["1:00 PM - 10:30 PM"]},"timezone":"US/Eastern"},{"apiKey":"ee3f841c5988f40665357bbaef9033f421819cfcb7ec7237","deliveryMin":18.00,"logoUrl":"https://eatstreet-static.s3.amazonaws.com/assets/images/restaurant_logos/desi-dhaba-9578_1395870306412.png","name":"Desi Dhaba","streetAddress":"401 Massachusetts Ave","city":"Cambridge","state":"MA","zip":"02139","foodTypes":["Indian Food","Indian"],"phone":"(617) 547-4121","latitude":42.363649,"longitude":-71.09999,"minFreeDelivery":0.00,"taxRate":0.0630,"acceptsCash":true,"acceptsCard":true,"offersPickup":true,"offersDelivery":true,"isTestRestaurant":false,"minWaitTime":45,"maxWaitTime":60,"open":false,"url":"https://eatstreet.com/boston-ma/restaurants/desi-dhaba","hours":{"Monday":["10:45 AM - 10:40 PM"],"Saturday":["10:45 AM - 10:40 PM"],"Sunday":["10:45 AM - 10:40 PM"],"Wednesday":["10:45 AM - 10:40 PM"],"Tuesday":["10:45 AM - 10:40 PM"],"Friday":["10:45 AM - 10:40 PM"],"Thursday":["10:45 AM - 10:40 PM"]},"timezone":"US/Eastern"},{"apiKey":"ee3f841c5988f406fe2bbabe6b94d9a6a6940ed783ba4417","deliveryMin":0.00,"logoUrl":"https://eatstreet-static.s3.amazonaws.com/assets/images/restaurant_logos/dimitrios-house-of-pizza-8863_1393618247535.png","name":"Dimitrio's House of Pizza","streetAddress":"1750 Dorchester Ave","city":"Dorchester Center","state":"MA","zip":"02125","foodTypes":["Pizza","Chicken Wings","Wraps"],"phone":"(617) 825-3340","latitude":42.313963,"longitude":-71.045897,"minFreeDelivery":0.00,"taxRate":0.0630,"acceptsCash":true,"acceptsCard":true,"offersPickup":true,"offersDelivery":true,"isTestRestaurant":false,"minWaitTime":45,"maxWaitTime":60,"open":false,"url":"https://eatstreet.com/boston-ma/restaurants/dimitrios-house-of-pizza","hours":{"Monday":["10:30 AM - 10:30 PM"],"Saturday":["10:30 AM - 10:30 PM"],"Sunday":["11:30 AM - 10:30 PM"],"Wednesday":["10:30 AM - 10:30 PM"],"Tuesday":["10:30 AM - 10:30 PM"],"Friday":["10:30 AM - 10:30 PM"],"Thursday":["10:30 AM - 10:30 PM"]},"timezone":"US/Eastern"},{"apiKey":"ee3f841c5988f40665357bbaef9033f4ebf84f245752fcb1","deliveryMin":15.00,"logoUrl":"https://eatstreet-static.s3.amazonaws.com/assets/images/restaurant_logos/dirty-water-dough-9582_1418658857436.png","name":"Dirty Water Dough","streetAddress":"222 Newbury St","city":"Boston","state":"MA","zip":"01960","foodTypes":["Subs & Sandwiches","Pizza","Healthy Food","Sandwiches","Salad"],"phone":"(617) 262-0090","latitude":42.349734,"longitude":-71.081072,"minFreeDelivery":0.00,"taxRate":0.0630,"acceptsCash":true,"acceptsCard":true,"offersPickup":true,"offersDelivery":true,"isTestRestaurant":false,"minWaitTime":45,"maxWaitTime":60,"open":false,"url":"https://eatstreet.com/boston-ma/restaurants/dirty-water-dough","hours":{"Monday":["11:00 AM - 9:45 PM"],"Saturday":["11:00 AM - 10:45 PM"],"Sunday":["11:00 AM - 9:45 PM"],"Wednesday":["11:00 AM - 9:45 PM"],"Tuesday":["11:00 AM - 9:45 PM"],"Friday":["11:00 AM - 10:45 PM"],"Thursday":["11:00 AM - 9:45 PM"]},"timezone":"US/Eastern"},{"apiKey":"ee3f841c5988f406f15b4f2e73e76180d524a834966bc08e","deliveryMin":15.00,"logoUrl":"https://eatstreet-static.s3.amazonaws.com/assets/images/restaurant_logos/dok-bua-thai-kitchen-34867_1450705242750.png","name":"Dok Bua Thai Kitchen","streetAddress":"411 Harvard St","city":"Brookline","state":"MA","zip":"02446","foodTypes":["Thai Food","Thai"],"phone":"(617) 232-2955","latitude":42.345462,"longitude":-71.126783,"minFreeDelivery":0.00,"taxRate":0.0625,"acceptsCash":true,"acceptsCard":true,"offersPickup":true,"offersDelivery":true,"isTestRestaurant":false,"minWaitTime":45,"maxWaitTime":60,"open":false,"url":"https://eatstreet.com/boston-ma/restaurants/dok-bua-thai-kitchen","hours":{"Monday":["11:00 AM - 10:00 PM"],"Saturday":["11:00 AM - 10:00 PM"],"Sunday":["11:00 AM - 10:00 PM"],"Wednesday":["11:00 AM - 10:00 PM"],"Tuesday":["11:00 AM - 10:00 PM"],"Friday":["11:00 AM - 10:00 PM"],"Thursday":["11:00 AM - 10:00 PM"]},"timezone":"US/Eastern"},{"apiKey":"ee3f841c5988f406144247b91fbcb2f3f9ca99722347acf6","deliveryMin":15.00,"deliveryPrice":0.00,"logoUrl":"https://eatstreet-static.s3.amazonaws.com/assets/images/restaurant_logos/dosa-factory-boston-26686_1421938383626.png","name":"Dosa Factory - Boston","streetAddress":"316 Newbury Street","city":"Boston","state":"MA","zip":"02115","foodTypes":["Catering","Indian Food","Indian"],"phone":"(617) 982-7957","latitude":42.34852,"longitude":-71.085363,"minFreeDelivery":0.00,"taxRate":0.0625,"acceptsCash":false,"acceptsCard":true,"offersPickup":true,"offersDelivery":true,"isTestRestaurant":false,"minWaitTime":45,"maxWaitTime":60,"open":false,"url":"https://eatstreet.com/boston-ma/restaurants/dosa-factory-boston","hours":{"Monday":["11:30 AM - 10:30 PM"],"Saturday":["11:30 AM - 10:30 PM"],"Sunday":["11:30 AM - 10:30 PM"],"Wednesday":["11:30 AM - 10:30 PM"],"Tuesday":["11:30 AM - 10:30 PM"],"Friday":["11:30 AM - 10:30 PM"],"Thursday":["11:30 AM - 10:30 PM"]},"timezone":"US/Eastern"},{"apiKey":"ee3f841c5988f406fe2bbabe6b94d9a6e277aa1ebe4d9d55","deliveryMin":15.00,"logoUrl":"https://eatstreet-static.s3.amazonaws.com/assets/images/restaurant_logos/dosa-factory-cambridge-8934_1421938397590.png","name":"Dosa Factory - Cambridge","streetAddress":"571 Massachusetts Ave","city":"Cambridge","state":"MA","zip":"02118","foodTypes":["Indian Food","Indian"],"phone":"(617) 868-3672","latitude":42.364723,"longitude":-71.102556,"minFreeDelivery":0.00,"taxRate":0.0630,"acceptsCash":false,"acceptsCard":true,"offersPickup":true,"offersDelivery":true,"isTestRestaurant":false,"minWaitTime":45,"maxWaitTime":60,"open":false,"url":"https://eatstreet.com/boston-ma/restaurants/dosa-factory","hours":{"Monday":["11:00 AM - 9:30 PM"],"Saturday":["11:00 AM - 9:30 PM"],"Sunday":["11:00 AM - 9:30 PM"],"Wednesday":["11:00 AM - 9:30 PM"],"Tuesday":["11:00 AM - 9:30 PM"],"Friday":["11:00 AM - 9:30 PM"],"Thursday":["11:00 AM - 9:30 PM"]},"timezone":"US/Eastern"},{"apiKey":"ee3f841c5988f406884225aec137a02abfbe8bec54a6fef3","deliveryMin":20.00,"logoUrl":"https://eatstreet-static.s3.amazonaws.com/assets/images/restaurant_logos/dosa-n-curry-11540_1418659950789.png","name":"Dosa n Curry","streetAddress":"447 Somerville Ave","city":"Somerville","state":"MA","zip":"02143","foodTypes":["Vegetarian","Indian Food","Indian"],"phone":"(617) 764-3152","latitude":42.382317,"longitude":-71.10262,"minFreeDelivery":0.00,"taxRate":0.0630,"acceptsCash":true,"acceptsCard":true,"offersPickup":true,"offersDelivery":true,"isTestRestaurant":false,"minWaitTime":45,"maxWaitTime":60,"open":false,"url":"https://eatstreet.com/boston-ma/restaurants/dosa-n-curry","hours":{"Monday":["5:00 PM - 10:00 PM"],"Saturday":["5:00 PM - 10:00 PM"],"Sunday":["5:00 PM - 10:00 PM"],"Wednesday":["5:00 PM - 10:00 PM"],"Tuesday":["5:00 PM - 10:00 PM"],"Friday":["5:00 PM - 10:00 PM"],"Thursday":["5:00 PM - 10:00 PM"]},"timezone":"US/Eastern"},{"apiKey":"ee3f841c5988f406f15b4f2e73e761806dc432bc47975f9f","deliveryMin":15.00,"logoUrl":"https://eatstreet-static.s3.amazonaws.com/assets/images/restaurant_logos/dumpling-palace-31155_1433413491900.png","name":"Dumpling Palace","streetAddress":"179 Massachusetts Ave.","city":"Boston","state":"MA","zip":"02115","foodTypes":["Chinese Food","Asian Food","Taiwanese","Chinese"],"phone":"(617) 266-8888","latitude":42.34571,"longitude":-71.087358,"minFreeDelivery":0.00,"taxRate":0.0625,"acceptsCash":true,"acceptsCard":true,"offersPickup":true,"offersDelivery":true,"isTestRestaurant":false,"minWaitTime":45,"maxWaitTime":60,"open":true,"url":"https://eatstreet.com/boston-ma/restaurants/dumpling-palace","hours":{"Monday":["12:00 AM - 2:45 AM","11:00 AM - 2:45 AM"],"Saturday":["11:00 AM - 1:45 AM"],"Sunday":["12:00 PM - 12:59 AM"],"Wednesday":["11:00 AM - 2:45 AM"],"Tuesday":["11:00 AM - 2:45 AM"],"Friday":["11:00 AM - 2:45 AM"],"Thursday":["11:00 AM - 2:45 AM"]},"timezone":"US/Eastern"},{"apiKey":"ee3f841c5988f406884225aec137a02a91c27045fe3dd6c3","deliveryMin":20.00,"logoUrl":"https://eatstreet-static.s3.amazonaws.com/assets/images/restaurant_logos/el-triunfo-13497_1418660841803.png","name":"El Triunfo","streetAddress":"147 E Berkeley St","city":"Boston","state":"MA","zip":"02118","foodTypes":["Mexican Food"],"phone":"(617) 542-8499","latitude":42.343565,"longitude":-71.064784,"minFreeDelivery":0.00,"taxRate":0.0630,"acceptsCash":true,"acceptsCard":true,"offersPickup":true,"offersDelivery":true,"isTestRestaurant":false,"minWaitTime":45,"maxWaitTime":60,"open":true,"url":"https://eatstreet.com/boston-ma/restaurants/el-triunfo","hours":{"Monday":["11:00 AM - 10:00 PM"],"Saturday":["11:00 AM - 4:30 AM"],"Sunday":["11:00 AM - 8:30 PM"],"Wednesday":["11:00 AM - 10:00 PM"],"Tuesday":["11:00 AM - 10:00 PM"],"Friday":["11:00 AM - 4:30 AM"],"Thursday":["11:00 AM - 3:30 AM"]},"timezone":"US/Eastern"},{"apiKey":"ee3f841c5988f406f15b4f2e73e7618070c2a52de0380eb4","deliveryMin":10.00,"logoUrl":"https://eatstreet-static.s3.amazonaws.com/assets/images/restaurant_logos/elephant-walk-33210_1444665315652.png","name":"Elephant Walk","streetAddress":"1415 Washington Street","city":"Boston","state":"MA","zip":"02118","foodTypes":["French Food","Asian Food","Cambodian","French"],"phone":"(617) 247-1500","latitude":42.341158,"longitude":-71.070573,"minFreeDelivery":0.00,"taxRate":0.0625,"acceptsCash":true,"acceptsCard":true,"offersPickup":true,"offersDelivery":false,"isTestRestaurant":false,"minWaitTime":40,"maxWaitTime":55,"open":false,"url":"https://eatstreet.com/boston-ma/restaurants/elephant-walk-boston","hours":{"Monday":["4:00 PM - 10:00 PM"],"Saturday":["11:30 AM - 10:30 PM"],"Sunday":["11:30 AM - 9:30 PM"],"Wednesday":["4:00 PM - 10:00 PM"],"Tuesday":["4:00 PM - 10:00 PM"],"Friday":["11:30 AM - 10:30 PM"],"Thursday":["11:30 AM - 10:00 PM"]},"timezone":"US/Eastern"},{"apiKey":"ee3f841c5988f406f15b4f2e73e761807e5c6b06db36aa90","deliveryMin":15.00,"logoUrl":"https://eatstreet-static.s3.amazonaws.com/assets/images/restaurant_logos/falafel-place-32085_1438715192272.png","name":"Falafel Place","streetAddress":"1 Main St","city":"Somerville","state":"MA","zip":"02145","foodTypes":["Middle Eastern Food","Mediterranean Food","Healthy Food","Soup","Falafel","Salad"],"phone":"(617) 764-2336","latitude":42.394915,"longitude":-71.097713,"minFreeDelivery":0.00,"taxRate":0.0625,"acceptsCash":true,"acceptsCard":true,"offersPickup":true,"offersDelivery":true,"isTestRestaurant":false,"minWaitTime":45,"maxWaitTime":60,"open":false,"url":"https://eatstreet.com/boston-ma/restaurants/falafel-place-somerville","hours":{"Monday":["11:00 AM - 11:00 PM"],"Sunday":["11:00 AM - 11:00 PM"],"Wednesday":["11:00 AM - 11:00 PM"],"Tuesday":["11:00 AM - 11:00 PM"],"Friday":["11:00 AM - 11:00 PM"],"Thursday":["11:00 AM - 11:00 PM"]},"timezone":"US/Eastern"},{"apiKey":"ee3f841c5988f406f15b4f2e73e76180ff559be713b90e7b","deliveryMin":10.00,"logoUrl":"https://eatstreet-static.s3.amazonaws.com/assets/images/restaurant_logos/favoloso-place-39580_1485113350490.png","name":"Favoloso Place","streetAddress":"36 Ferry Street","city":"Everett","state":"MA","zip":"02149","foodTypes":["Pizza","Subs"],"phone":"(617) 294-0538","latitude":42.4053502,"longitude":-71.0499405,"minFreeDelivery":0.00,"taxRate":0.0625,"acceptsCash":true,"acceptsCard":true,"offersPickup":true,"offersDelivery":true,"isTestRestaurant":false,"minWaitTime":45,"maxWaitTime":60,"open":false,"url":"https://eatstreet.com/boston-ma/restaurants/favoloso-place","hours":{"Monday":["11:00 AM - 10:00 PM"],"Saturday":["11:00 AM - 11:00 PM"],"Sunday":["12:00 PM - 9:00 PM"],"Wednesday":["11:00 AM - 10:00 PM"],"Tuesday":["11:00 AM - 10:00 PM"],"Friday":["11:00 AM - 11:00 PM"],"Thursday":["11:00 AM - 10:00 PM"]},"timezone":"US/Eastern"},{"apiKey":"ee3f841c5988f406884225aec137a02af81cf727a9e1ddaa","deliveryMin":10.00,"deliveryPrice":1.00,"logoUrl":"https://eatstreet-static.s3.amazonaws.com/assets/images/restaurant_logos/felcaro-pizzeria-14902_1401911031177.png","name":"Felcaro Pizzeria","streetAddress":"280 Cambridge St","city":"Boston","state":"MA","zip":"01890","foodTypes":["Pizza"],"phone":"(617) 742-0011","latitude":42.360937,"longitude":-71.068067,"minFreeDelivery":0.00,"taxRate":0.0630,"acceptsCash":true,"acceptsCard":true,"offersPickup":true,"offersDelivery":true,"isTestRestaurant":false,"minWaitTime":45,"maxWaitTime":60,"open":true,"url":"https://eatstreet.com/boston-ma/restaurants/felcaro-pizzeria","hours":{"Monday":["5:00 PM - 10:00 PM"],"Saturday":["5:00 PM - 2:00 AM"],"Sunday":["5:00 PM - 10:00 PM"],"Wednesday":["5:00 PM - 10:00 PM"],"Tuesday":["5:00 PM - 10:00 PM"],"Friday":["5:00 PM - 2:00 AM"],"Thursday":["5:00 PM - 2:00 AM"]},"timezone":"US/Eastern"},{"apiKey":"ee3f841c5988f406da325d7782b35bdb3a2024a0d46ff148","deliveryMin":50.00,"deliveryPrice":0.00,"logoUrl":"https://eatstreet-static.s3.amazonaws.com/assets/images/restaurant_logos/flame-cafe-7958_1418663637879.png","name":"Flame Cafe","streetAddress":"2 Oliver St","city":"Boston","state":"MA","zip":"02109","foodTypes":["Greek Food","Middle Eastern Food","Mediterranean Food","Breakfast","Mediterranean","Armenian","Greek"],"phone":"(617) 615-9792","latitude":42.357127,"longitude":-71.054384,"minFreeDelivery":0.00,"taxRate":0.0630,"acceptsCash":true,"acceptsCard":true,"offersPickup":true,"offersDelivery":true,"isTestRestaurant":false,"minWaitTime":45,"maxWaitTime":60,"open":false,"url":"https://eatstreet.com/boston-ma/restaurants/flame-cafe","hours":{"Monday":["7:30 AM - 3:00 PM"],"Wednesday":["7:30 AM - 3:00 PM"],"Tuesday":["7:30 AM - 3:00 PM"],"Friday":["7:30 AM - 3:00 PM"],"Thursday":["7:30 AM - 3:00 PM"]},"timezone":"US/Eastern"},{"apiKey":"ee3f841c5988f406f15b4f2e73e76180d618085305157835","deliveryMin":15.00,"logoUrl":"https://eatstreet-static.s3.amazonaws.com/assets/images/restaurant_logos/geido-sushi-36696_1461784742666.png","name":"Geido Sushi","streetAddress":"1 Brighton Avenue","city":"Allston","state":"MA","zip":"02134","foodTypes":["Japanese Food","Sushi","Sushi Bars"],"phone":"(617) 987-0135","latitude":42.352449,"longitude":-71.12541,"minFreeDelivery":0.00,"taxRate":0.0625,"acceptsCash":true,"acceptsCard":true,"offersPickup":true,"offersDelivery":true,"isTestRestaurant":false,"minWaitTime":45,"maxWaitTime":60,"open":false,"url":"https://eatstreet.com/boston-ma/restaurants/geido-sushi","hours":{"Monday":["11:00 AM - 9:00 PM"],"Saturday":["11:00 AM - 9:30 PM"],"Sunday":["11:00 AM - 9:00 PM"],"Wednesday":["11:00 AM - 9:00 PM"],"Tuesday":["11:00 AM - 9:00 PM"],"Friday":["11:00 AM - 9:30 PM"],"Thursday":["11:00 AM - 9:00 PM"]},"timezone":"US/Eastern"},{"apiKey":"ee3f841c5988f406144247b91fbcb2f3ceb46bcede58719a","deliveryMin":10.00,"logoUrl":"https://eatstreet-static.s3.amazonaws.com/assets/images/restaurant_logos/genki-ya-organic-sushi-26690_1421938522719.png","name":"Genki Ya Organic Sushi","streetAddress":"232 Tremont St","city":"Boston","state":"MA","zip":"02116","foodTypes":["Bar/Pub Food","Japanese Food","Sushi","Sushi Bars","Japanese","Bars"],"phone":"(617) 338-8686","latitude":42.351232,"longitude":-71.064698,"minFreeDelivery":0.00,"taxRate":0.0625,"acceptsCash":true,"acceptsCard":true,"offersPickup":true,"offersDelivery":true,"isTestRestaurant":false,"minWaitTime":45,"maxWaitTime":60,"open":false,"url":"https://eatstreet.com/boston-ma/restaurants/genki-ya-organic-sushi","hours":{"Monday":["11:00 AM - 1:30 AM"],"Saturday":["11:00 AM - 1:30 AM"],"Sunday":["12:00 PM - 11:30 PM"],"Wednesday":["11:00 AM - 1:30 AM"],"Tuesday":["11:00 AM - 1:30 AM"],"Friday":["11:00 AM - 1:30 AM"],"Thursday":["11:00 AM - 1:30 AM"]},"timezone":"US/Eastern"},{"apiKey":"ee3f841c5988f406144247b91fbcb2f3581057cc06af288d","deliveryMin":15.00,"logoUrl":"https://eatstreet-static.s3.amazonaws.com/assets/images/restaurant_logos/giggling-rice-thai-to-go-20587_1406832616385.png","name":"Giggling Rice Thai To Go","streetAddress":"1009 Beacon St","city":"Brookline","state":"MA","zip":"02445","foodTypes":["Thai Food"],"phone":"(617) 232-9888","latitude":42.345777,"longitude":-71.107574,"minFreeDelivery":0.00,"taxRate":0.0625,"acceptsCash":true,"acceptsCard":true,"offersPickup":true,"offersDelivery":true,"isTestRestaurant":false,"minWaitTime":45,"maxWaitTime":60,"open":false,"url":"https://eatstreet.com/boston-ma/restaurants/giggling-rice-thai-to-go","hours":{"Monday":["11:30 AM - 10:00 PM"],"Saturday":["11:30 AM - 10:00 PM"],"Sunday":["11:30 AM - 10:00 PM"],"Wednesday":["11:30 AM - 10:00 PM"],"Tuesday":["11:30 AM - 10:00 PM"],"Friday":["11:30 AM - 10:00 PM"],"Thursday":["11:30 AM - 10:00 PM"]},"timezone":"US/Eastern"},{"apiKey":"ee3f841c5988f406f15b4f2e73e76180c8586fc49bb41116","deliveryMin":10.00,"logoUrl":"https://eatstreet-static.s3.amazonaws.com/assets/images/restaurant_logos/good-eats-31766_1437316130466.png","name":"Good Eats","streetAddress":"1002 Tremont St","city":"Roxbury Crossing","state":"MA","zip":"02120","foodTypes":["Subs & Sandwiches","Pizza"],"phone":"(617) 442-0999","latitude":42.336834,"longitude":-71.084611,"minFreeDelivery":0.00,"taxRate":0.0625,"acceptsCash":true,"acceptsCard":true,"offersPickup":true,"offersDelivery":true,"isTestRestaurant":false,"minWaitTime":45,"maxWaitTime":60,"open":false,"url":"https://eatstreet.com/boston-ma/restaurants/good-eats-roxbury-crossing","hours":{"Monday":["11:00 AM - 9:30 PM"],"Saturday":["11:00 AM - 9:30 PM"],"Sunday":["11:00 AM - 8:30 PM"],"Wednesday":["11:00 AM - 9:30 PM"],"Tuesday":["11:00 AM - 9:30 PM"],"Friday":["11:00 AM - 9:30 PM"],"Thursday":["11:00 AM - 9:30 PM"]},"timezone":"US/Eastern"},{"apiKey":"ee3f841c5988f406144247b91fbcb2f3fbf88a69f7000feb","logoUrl":"https://eatstreet-static.s3.amazonaws.com/assets/images/restaurant_logos/gourmet-india-boston-23877_1411763129436.png","name":"Gourmet India - Boston","streetAddress":"1 Faneuil Hall Marketplace","city":"Boston","state":"MA","zip":"02109","foodTypes":["Indian Food"],"phone":"(617) 557-9300","latitude":42.360099,"longitude":-71.056148,"minFreeDelivery":0.00,"taxRate":0.0625,"acceptsCash":true,"acceptsCard":true,"offersPickup":true,"offersDelivery":false,"isTestRestaurant":false,"minWaitTime":45,"maxWaitTime":60,"open":false,"url":"https://eatstreet.com/boston-ma/restaurants/gourmet-india-boston","hours":{"Monday":["11:00 AM - 8:30 PM"],"Saturday":["11:00 AM - 8:30 PM"],"Sunday":["11:00 AM - 5:30 PM"],"Wednesday":["11:00 AM - 8:30 PM"],"Tuesday":["11:00 AM - 8:30 PM"],"Friday":["11:00 AM - 8:30 PM"],"Thursday":["11:00 AM - 8:30 PM"]},"timezone":"US/Eastern"},{"apiKey":"ee3f841c5988f406144247b91fbcb2f302421239430ab1eb","deliveryMin":20.00,"deliveryPrice":6.00,"logoUrl":"https://eatstreet-static.s3.amazonaws.com/assets/images/restaurant_logos/guangzhou-restaurant-23865_1411936167360.png","name":"Guangzhou Restaurant","streetAddress":"1220 Cambridge St","city":"Cambridge","state":"MA","zip":"02139","foodTypes":["Chinese Food"],"phone":"(617) 547-6368","latitude":42.373317,"longitude":-71.09771,"minFreeDelivery":0.00,"taxRate":0.0625,"acceptsCash":true,"acceptsCard":true,"offersPickup":true,"offersDelivery":true,"isTestRestaurant":false,"minWaitTime":45,"maxWaitTime":60,"open":false,"url":"https://eatstreet.com/boston-ma/restaurants/guangzhou-restaurant","hours":{"Sunday":["6:00 PM - 10:00 PM"],"Wednesday":["6:00 PM - 10:00 PM"],"Friday":["6:00 PM - 10:00 PM"],"Thursday":["6:00 PM - 10:00 PM"]},"timezone":"US/Eastern"},{"apiKey":"ee3f841c5988f406f15b4f2e73e76180bba01dc1fd289476","deliveryMin":0.00,"deliveryPrice":0.00,"logoUrl":"https://eatstreet-static.s3.amazonaws.com/assets/images/restaurant_logos/gummy-munchies-34676_1449531304617.png","name":"Gummy Munchies","streetAddress":"303 Broadway","city":"Chelsea","state":"MA","zip":"02150","foodTypes":["Dessert","Snacks"],"phone":"(781) 656-4289","latitude":42.391208,"longitude":-71.036707,"minFreeDelivery":0.00,"taxRate":0.0625,"acceptsCash":true,"acceptsCard":true,"offersPickup":true,"offersDelivery":true,"isTestRestaurant":false,"minWaitTime":45,"maxWaitTime":60,"open":true,"url":"https://eatstreet.com/boston-ma/restaurants/gummy-munchies","hours":{"Monday":["2:00 PM - 12:30 AM"],"Saturday":["10:00 AM - 2:30 AM"],"Sunday":["10:00 AM - 12:30 AM"],"Wednesday":["2:00 PM - 12:30 AM"],"Tuesday":["2:00 PM - 12:30 AM"],"Friday":["2:00 PM - 2:30 AM"],"Thursday":["2:00 PM - 12:30 AM"]},"timezone":"US/Eastern"},{"apiKey":"ee3f841c5988f406144247b91fbcb2f3a1b715d189e46bb3","deliveryMin":20.00,"deliveryPrice":3.00,"logoUrl":"https://eatstreet-static.s3.amazonaws.com/assets/images/restaurant_logos/gyro-city-23902_1412099611450.png","name":"Gyro City","streetAddress":"88 Peterborough St","city":"Boston","state":"MA","zip":"02215","foodTypes":["Greek Food","Burgers"],"phone":"(617) 266-4976","latitude":42.343672,"longitude":-71.097453,"minFreeDelivery":0.00,"taxRate":0.0625,"acceptsCash":true,"acceptsCard":true,"offersPickup":true,"offersDelivery":true,"isTestRestaurant":false,"minWaitTime":45,"maxWaitTime":60,"open":false,"url":"https://eatstreet.com/boston-ma/restaurants/gyro-city","hours":{"Monday":["11:00 AM - 10:00 PM"],"Saturday":["11:00 AM - 10:00 PM"],"Sunday":["11:00 AM - 10:00 PM"],"Wednesday":["11:00 AM - 10:00 PM"],"Tuesday":["11:00 AM - 10:00 PM"],"Friday":["11:00 AM - 10:00 PM"],"Thursday":["11:00 AM - 10:00 PM"]},"timezone":"US/Eastern"},{"apiKey":"ee3f841c5988f406144247b91fbcb2f3e08e108dde68f1a0","deliveryMin":50.00,"logoUrl":"https://eatstreet-static.s3.amazonaws.com/assets/images/restaurant_logos/halal-indian-cuisine-22299_1409694436307.png","name":"Halal Indian Cuisine","streetAddress":"736 Huntington Ave","city":"Boston","state":"MA","zip":"02115","foodTypes":["Indian Food"],"phone":"(617) 232-5000","latitude":42.3338137,"longitude":-71.1055008,"minFreeDelivery":0.00,"taxRate":0.0625,"acceptsCash":true,"acceptsCard":true,"offersPickup":true,"offersDelivery":true,"isTestRestaurant":false,"minWaitTime":45,"maxWaitTime":60,"open":false,"url":"https://eatstreet.com/boston-ma/restaurants/halal-indian-cuisine","hours":{"Monday":["11:00 AM - 10:00 PM"],"Saturday":["11:00 AM - 10:00 PM"],"Sunday":["11:00 AM - 10:00 PM"],"Wednesday":["11:00 AM - 10:00 PM"],"Tuesday":["11:00 AM - 10:00 PM"],"Friday":["11:00 AM - 10:00 PM"],"Thursday":["11:00 AM - 10:00 PM"]},"timezone":"US/Eastern"},{"apiKey":"ee3f841c5988f406884225aec137a02ad2295a18b4a44d28","deliveryMin":10.00,"deliveryPrice":5.00,"logoUrl":"https://eatstreet-static.s3.amazonaws.com/assets/images/restaurant_logos/happy-garden-16043_1401997742739.png","name":"Happy Garden","streetAddress":"377 Washington St.","city":"Brighton","state":"MA","zip":"02135","foodTypes":["Chinese"],"phone":"(617) 787-0293","latitude":42.34928,"longitude":-71.154321,"minFreeDelivery":0.00,"taxRate":0.0630,"acceptsCash":true,"acceptsCard":true,"offersPickup":true,"offersDelivery":true,"isTestRestaurant":false,"minWaitTime":45,"maxWaitTime":60,"open":true,"url":"https://eatstreet.com/boston-ma/restaurants/happy-garden-brighton","hours":{"Monday":["11:30 AM - 2:00 AM"],"Saturday":["11:30 AM - 2:00 AM"],"Sunday":["11:30 AM - 2:00 AM"],"Wednesday":["11:30 AM - 2:00 AM"],"Tuesday":["11:30 AM - 2:00 AM"],"Friday":["11:30 AM - 2:00 AM"],"Thursday":["11:30 AM - 2:00 AM"]},"timezone":"US/Eastern"},{"apiKey":"ee3f841c5988f406da325d7782b35bdb56497747262d3c21","deliveryMin":10.00,"logoUrl":"https://eatstreet-static.s3.amazonaws.com/assets/images/restaurant_logos/hidyan-cafe-7168_1418668758453.png","name":"Hidyan Cafe","streetAddress":"80 Kilmarnock St","city":"Boston","state":"MA","zip":"02215","foodTypes":["Middle Eastern Food","Ice Cream & Frozen Yogurt","American Food","","American (Traditional)","Middle Eastern"],"phone":"(617) 437-0966","latitude":42.342355,"longitude":-71.099213,"minFreeDelivery":-1.0000,"taxRate":0.0700,"acceptsCash":true,"acceptsCard":true,"offersPickup":true,"offersDelivery":true,"isTestRestaurant":false,"minWaitTime":45,"maxWaitTime":60,"open":false,"url":"https://eatstreet.com/boston-ma/restaurants/hidyan-cafe","hours":{"Monday":["11:30 AM - 11:30 PM"],"Saturday":["11:30 AM - 11:30 PM"],"Sunday":["11:30 AM - 11:30 PM"],"Wednesday":["11:30 AM - 11:30 PM"],"Tuesday":["11:30 AM - 11:30 PM"],"Friday":["11:30 AM - 11:30 PM"],"Thursday":["11:30 AM - 11:30 PM"]},"timezone":"US/Eastern"},{"apiKey":"ee3f841c5988f406f15b4f2e73e76180097c5e94ffb38c76","logoUrl":"https://eatstreet-static.s3.amazonaws.com/assets/images/restaurant_logos/hollywood-market-and-deli-34656_1449530992190.png","name":"Hollywood Market & Deli","streetAddress":"137 Pearl St","city":"Boston","state":"MA","zip":"02110","foodTypes":["Subs & Sandwiches","Breakfast","Convenience Store","Convenience Stores"],"phone":"(617) 482-0004","latitude":42.354646,"longitude":-71.053814,"minFreeDelivery":0.00,"taxRate":0.0625,"acceptsCash":true,"acceptsCard":true,"offersPickup":true,"offersDelivery":false,"isTestRestaurant":false,"minWaitTime":45,"maxWaitTime":60,"open":false,"url":"https://eatstreet.com/boston-ma/restaurants/hollywood-market-and-deli","hours":{"Monday":["6:00 AM - 9:00 AM"],"Wednesday":["6:00 AM - 9:00 AM"],"Tuesday":["6:00 AM - 9:00 AM"],"Friday":["6:00 AM - 9:00 AM"],"Thursday":["6:00 AM - 9:00 AM"]},"timezone":"US/Eastern"},{"apiKey":"ee3f841c5988f40665357bbaef9033f4994f19174d31f31a","deliveryMin":20.00,"deliveryPrice":3.00,"logoUrl":"https://eatstreet-static.s3.amazonaws.com/assets/images/restaurant_logos/house-of-siam-9734_1418672330117.png","name":"House of Siam","streetAddress":"542 Columbus Ave","city":"Boston","state":"MA","zip":"02118","foodTypes":["Thai Food","Thai"],"phone":"(617) 267-1755","latitude":42.341478,"longitude":-71.08042,"minFreeDelivery":0.00,"taxRate":0.0630,"acceptsCash":true,"acceptsCard":true,"offersPickup":true,"offersDelivery":true,"isTestRestaurant":false,"minWaitTime":45,"maxWaitTime":60,"open":false,"url":"https://eatstreet.com/boston-ma/restaurants/house-of-siam","hours":{"Monday":["11:30 AM - 10:00 PM"],"Saturday":["12:00 PM - 11:00 PM"],"Sunday":["12:00 PM - 10:00 PM"],"Wednesday":["11:30 AM - 10:00 PM"],"Tuesday":["11:30 AM - 10:00 PM"],"Friday":["11:30 AM - 11:00 PM"],"Thursday":["11:30 AM - 10:00 PM"]},"timezone":"US/Eastern"},{"apiKey":"ee3f841c5988f406144247b91fbcb2f31f20fbefae3a5c98","deliveryMin":10.00,"logoUrl":"https://eatstreet-static.s3.amazonaws.com/assets/images/restaurant_logos/il-mondo-22107_1418672488470.png","name":"Il Mondo","streetAddress":"682 Huntington Ave","city":"Boston","state":"MA","zip":"02115","foodTypes":["Pizza"],"phone":"(617) 277-7161","latitude":42.3348859,"longitude":-71.102538,"minFreeDelivery":0.00,"taxRate":0.0625,"acceptsCash":true,"acceptsCard":true,"offersPickup":true,"offersDelivery":true,"isTestRestaurant":false,"minWaitTime":45,"maxWaitTime":60,"open":false,"url":"https://eatstreet.com/boston-ma/restaurants/il-mondo","hours":{"Monday":["11:00 AM - 11:45 PM"],"Saturday":["11:00 AM - 12:45 AM"],"Sunday":["11:00 AM - 11:45 PM"],"Wednesday":["11:00 AM - 11:45 PM"],"Tuesday":["11:00 AM - 11:45 PM"],"Friday":["11:00 AM - 12:45 AM"],"Thursday":["11:00 AM - 12:45 AM"]},"timezone":"US/Eastern"},{"apiKey":"ee3f841c5988f406144247b91fbcb2f320687a6048bea3c7","deliveryMin":10.00,"logoUrl":"https://eatstreet-static.s3.amazonaws.com/assets/images/restaurant_logos/il-mondo-ii-23118_1418672505273.png","name":"Il Mondo II","streetAddress":"182 Massachusetts Ave","city":"Boston","state":"MA","zip":"02115","foodTypes":["Pizza"],"phone":"(617) 262-1700","latitude":42.345801,"longitude":-71.086684,"minFreeDelivery":0.00,"taxRate":0.0625,"acceptsCash":true,"acceptsCard":true,"offersPickup":true,"offersDelivery":true,"isTestRestaurant":false,"minWaitTime":45,"maxWaitTime":60,"open":false,"url":"https://eatstreet.com/boston-ma/restaurants/il-mondo-ii","hours":{"Monday":["11:00 AM - 12:00 AM"],"Saturday":["11:00 AM - 12:45 AM"],"Sunday":["11:00 AM - 12:00 AM"],"Wednesday":["11:00 AM - 12:00 AM"],"Tuesday":["11:00 AM - 12:00 AM"],"Friday":["11:00 AM - 12:45 AM"],"Thursday":["11:00 AM - 12:00 AM"]},"timezone":"US/Eastern"},{"apiKey":"ee3f841c5988f406144247b91fbcb2f358aee6fa883292fb","deliveryMin":3.00,"logoUrl":"https://eatstreet-static.s3.amazonaws.com/assets/images/restaurant_logos/inbound-pizza-22262_1418672848430.png","name":"Inbound Pizza","streetAddress":"1232 Commonwealth Ave","city":"Allston","state":"MA","zip":"02134","foodTypes":["Subs & Sandwiches","Pizza","Healthy Food"],"phone":"(617) 566-1617","latitude":42.349837,"longitude":-71.131075,"minFreeDelivery":0.00,"taxRate":0.0700,"acceptsCash":true,"acceptsCard":true,"offersPickup":true,"offersDelivery":true,"isTestRestaurant":false,"minWaitTime":45,"maxWaitTime":60,"open":true,"url":"https://eatstreet.com/boston-ma/restaurants/inbound-pizza","hours":{"Monday":["11:00 AM - 11:45 PM"],"Saturday":["11:00 AM - 3:00 AM"],"Sunday":["11:00 AM - 11:45 PM"],"Wednesday":["11:00 AM - 11:45 PM"],"Tuesday":["11:00 AM - 11:45 PM"],"Friday":["11:00 AM - 3:00 AM"],"Thursday":["11:00 AM - 1:45 AM"]},"timezone":"US/Eastern"},{"apiKey":"ee3f841c5988f406144247b91fbcb2f386c249dabcfee45a","deliveryMin":20.00,"logoUrl":"https://eatstreet-static.s3.amazonaws.com/assets/images/restaurant_logos/india-palace-23805_1411758129569.png","name":"India Palace","streetAddress":"23 Union Square","city":"Somerville","state":"MA","zip":"02143","foodTypes":["Pakistani Food","Indian Food"],"phone":"(617) 666-9770","latitude":42.379878,"longitude":-71.096509,"minFreeDelivery":0.00,"taxRate":0.0625,"acceptsCash":true,"acceptsCard":true,"offersPickup":true,"offersDelivery":true,"isTestRestaurant":false,"minWaitTime":45,"maxWaitTime":60,"open":false,"url":"https://eatstreet.com/boston-ma/restaurants/india-palace-somerville","hours":{"Monday":["11:00 AM - 2:45 PM","5:00 PM - 10:30 PM"],"Saturday":["11:00 AM - 2:45 PM","5:00 PM - 10:30 PM"],"Sunday":["12:00 PM - 10:30 PM"],"Wednesday":["11:00 AM - 2:45 PM","5:00 PM - 10:30 PM"],"Tuesday":["11:00 AM - 2:45 PM","5:00 PM - 10:30 PM"],"Friday":["11:00 AM - 2:45 PM","5:00 PM - 10:30 PM"],"Thursday":["11:00 AM - 2:45 PM","5:00 PM - 10:30 PM"]},"timezone":"US/Eastern"},{"apiKey":"ee3f841c5988f406884225aec137a02af62f084d474e1f00","deliveryMin":20.00,"deliveryPrice":1.00,"logoUrl":"https://eatstreet-static.s3.amazonaws.com/assets/images/restaurant_logos/india-quality-restaurant-12081_1400085793872.png","name":"India Quality Restaurant","streetAddress":"484 Commonwealth Avenue","city":"Boston","state":"MA","zip":"02215","foodTypes":["Indian Food","Indian"],"phone":"(617) 267-6666","latitude":42.348504,"longitude":-71.094223,"minFreeDelivery":0.00,"taxRate":0.0630,"acceptsCash":true,"acceptsCard":true,"offersPickup":true,"offersDelivery":true,"isTestRestaurant":false,"minWaitTime":45,"maxWaitTime":60,"open":false,"url":"https://eatstreet.com/boston-ma/restaurants/india-quality-restaurant","hours":{"Monday":["11:30 AM - 2:30 PM","5:00 PM - 10:30 PM"],"Saturday":["11:30 AM - 2:30 PM"],"Sunday":["11:30 AM - 11:00 PM"],"Wednesday":["11:30 AM - 2:30 PM","5:00 PM - 10:30 PM"],"Tuesday":["11:30 AM - 2:30 PM","5:00 PM - 10:30 PM"],"Friday":["11:30 AM - 2:30 PM","5:00 PM - 10:30 PM"],"Thursday":["11:30 AM - 2:30 PM","5:00 PM - 10:30 PM"]},"timezone":"US/Eastern"},{"apiKey":"ee3f841c5988f406144247b91fbcb2f3d71187d73edca144","deliveryMin":30.00,"logoUrl":"https://eatstreet-static.s3.amazonaws.com/assets/images/restaurant_logos/india-samraat-22413_1418674488357.png","name":"India Samraat","streetAddress":"1335 Beacon St","city":"Brookline","state":"MA","zip":"02446","foodTypes":["Vegetarian","Halal","Indian Food"],"phone":"(617) 247-0718","latitude":42.341723,"longitude":-71.121543,"minFreeDelivery":0.00,"taxRate":0.0700,"acceptsCash":true,"acceptsCard":true,"offersPickup":true,"offersDelivery":true,"isTestRestaurant":false,"minWaitTime":45,"maxWaitTime":60,"open":false,"url":"https://eatstreet.com/boston-ma/restaurants/india-samraat","hours":{"Monday":["11:30 AM - 9:30 PM"],"Saturday":["11:30 AM - 9:30 PM"],"Sunday":["11:30 AM - 9:00 PM"],"Wednesday":["11:30 AM - 9:30 PM"],"Tuesday":["11:30 AM - 9:30 PM"],"Friday":["11:30 AM - 9:30 PM"],"Thursday":["11:30 AM - 9:30 PM"]},"timezone":"US/Eastern"},{"apiKey":"ee3f841c5988f406144247b91fbcb2f39a1f3e1278e3b76d","deliveryMin":30.00,"logoUrl":"https://eatstreet-static.s3.amazonaws.com/assets/images/restaurant_logos/jo-jo-taipei-22236_1418676507805.png","name":"Jo Jo Taipei","streetAddress":"103 Brighton Ave","city":"Allston","state":"MA","zip":"02134","foodTypes":["Chinese Food","Asian Food"],"phone":"(617) 254-8889","latitude":42.352822,"longitude":-71.130385,"minFreeDelivery":0.00,"taxRate":0.0625,"acceptsCash":true,"acceptsCard":true,"offersPickup":true,"offersDelivery":true,"isTestRestaurant":false,"minWaitTime":45,"maxWaitTime":60,"open":false,"url":"https://eatstreet.com/boston-ma/restaurants/jo-jo-taipei","hours":{"Monday":["5:00 PM - 10:30 PM"],"Saturday":["5:00 PM - 10:30 PM"],"Sunday":["5:00 PM - 10:30 PM"],"Wednesday":["5:00 PM - 10:30 PM"],"Tuesday":["5:00 PM - 10:30 PM"],"Friday":["5:00 PM - 10:30 PM"],"Thursday":["5:00 PM - 10:30 PM"]},"timezone":"US/Eastern"},{"apiKey":"ee3f841c5988f406f15b4f2e73e76180d972de568747796e","logoUrl":"https://eatstreet-static.s3.amazonaws.com/assets/images/restaurant_logos/juice-republic-33503_1445632639255.png","name":"Juice Republic","streetAddress":"32 Kneeland St","city":"Boston","state":"MA","zip":"02111","foodTypes":["Healthy Food","Smoothies & Juices","Juice Bars & Smoothies"],"phone":"(617) 292-9988","latitude":42.350717,"longitude":-71.061814,"minFreeDelivery":0.00,"taxRate":0.0625,"acceptsCash":true,"acceptsCard":true,"offersPickup":true,"offersDelivery":false,"isTestRestaurant":false,"minWaitTime":45,"maxWaitTime":60,"open":false,"url":"https://eatstreet.com/boston-ma/restaurants/juice-republic","hours":{"Monday":["9:00 AM - 9:00 PM"],"Saturday":["9:00 AM - 9:00 PM"],"Sunday":["9:00 AM - 9:00 PM"],"Wednesday":["9:00 AM - 9:00 PM"],"Tuesday":["9:00 AM - 9:00 PM"],"Friday":["9:00 AM - 9:00 PM"],"Thursday":["9:00 AM - 9:00 PM"]},"timezone":"US/Eastern"},{"apiKey":"ee3f841c5988f406144247b91fbcb2f388b144386f975389","deliveryMin":20.00,"logoUrl":"https://eatstreet-static.s3.amazonaws.com/assets/images/restaurant_logos/ktown-chicken-22045_1418676593918.png","name":"KTown Chicken","streetAddress":"136 Harvard Ave","city":"Allston","state":"MA","zip":"02134","foodTypes":["Wings","Korean Food","Chicken"],"phone":"(617) 337-3500","latitude":42.352075,"longitude":-71.131697,"minFreeDelivery":0.00,"taxRate":0.0625,"acceptsCash":true,"acceptsCard":true,"offersPickup":true,"offersDelivery":true,"isTestRestaurant":false,"minWaitTime":45,"maxWaitTime":60,"open":false,"url":"https://eatstreet.com/boston-ma/restaurants/ktown-chicken","hours":{"Monday":["4:00 PM - 11:00 PM"],"Saturday":["4:00 PM - 10:00 PM"],"Sunday":["4:00 PM - 10:00 PM"],"Wednesday":["4:00 PM - 11:00 PM"],"Tuesday":["4:00 PM - 11:00 PM"],"Friday":["4:00 PM - 11:00 PM"],"Thursday":["4:00 PM - 11:00 PM"]},"timezone":"US/Eastern"},{"apiKey":"ee3f841c5988f40665357bbaef9033f4db9816c96e6d52c7","deliveryMin":18.00,"logoUrl":"https://eatstreet-static.s3.amazonaws.com/assets/images/restaurant_logos/kabab-corner-9580_1418677633526.png","name":"Kabab Corner","streetAddress":"4110 Mystic Valley Pkwy","city":"Medford","state":"MA","zip":"02155","foodTypes":["Indian","Pakistani"],"phone":"(781) 395-3310","latitude":42.40515,"longitude":-71.08268,"minFreeDelivery":0.00,"taxRate":0.0630,"acceptsCash":true,"acceptsCard":true,"offersPickup":true,"offersDelivery":true,"isTestRestaurant":false,"minWaitTime":45,"maxWaitTime":60,"open":false,"url":"https://eatstreet.com/boston-ma/restaurants/kabab-corner","hours":{"Monday":["11:30 AM - 9:45 PM"],"Saturday":["11:30 AM - 9:30 PM"],"Sunday":["11:30 AM - 9:45 PM"],"Wednesday":["11:30 AM - 9:45 PM"],"Tuesday":["11:30 AM - 9:45 PM"],"Friday":["11:30 AM - 10:30 PM"],"Thursday":["11:30 AM - 9:45 PM"]},"timezone":"US/Eastern"},{"apiKey":"ee3f841c5988f406884225aec137a02ac1e20ec0912721e0","deliveryMin":10.00,"logoUrl":"https://eatstreet-static.s3.amazonaws.com/assets/images/restaurant_logos/lp-pizza-and-subs-10105_1418679950079.png","name":"LP Pizza & Subs","streetAddress":"96 Highland Ave","city":"Somerville","state":"MA","zip":"02771","foodTypes":["Subs & Sandwiches","Pizza","Sandwiches"],"phone":"(617) 628-0290","latitude":42.386747,"longitude":-71.098981,"minFreeDelivery":0.00,"taxRate":0.0630,"acceptsCash":true,"acceptsCard":true,"offersPickup":true,"offersDelivery":true,"isTestRestaurant":false,"minWaitTime":45,"maxWaitTime":60,"open":false,"url":"https://eatstreet.com/boston-ma/restaurants/lp-pizza-and-subs","hours":{"Monday":["11:00 AM - 10:30 PM"],"Saturday":["11:00 AM - 10:30 PM"],"Sunday":["12:00 PM - 9:30 PM"],"Wednesday":["11:00 AM - 10:30 PM"],"Tuesday":["11:00 AM - 10:30 PM"],"Friday":["11:00 AM - 10:30 PM"],"Thursday":["11:00 AM - 10:30 PM"]},"timezone":"US/Eastern"},{"apiKey":"ee3f841c5988f406f15b4f2e73e76180b17811638f4aaf93","deliveryMin":10.00,"logoUrl":"https://eatstreet-static.s3.amazonaws.com/assets/images/restaurant_logos/la-bonanza-restaurant-34918_1451150831291.png","name":"La Bonanza Restaurant","streetAddress":"505 Medford St","city":"Somerville","state":"MA","zip":"02145","foodTypes":["Mexican Food","Italian Food"],"phone":"(617) 625-0594","latitude":42.39633,"longitude":-71.103353,"minFreeDelivery":0.00,"taxRate":0.0625,"acceptsCash":true,"acceptsCard":true,"offersPickup":true,"offersDelivery":true,"isTestRestaurant":false,"minWaitTime":45,"maxWaitTime":60,"open":false,"url":"https://eatstreet.com/boston-ma/restaurants/la-bonanza-restaurant","hours":{"Monday":["11:00 AM - 10:00 PM"],"Saturday":["11:00 AM - 10:00 PM"],"Sunday":["11:00 AM - 10:00 PM"],"Wednesday":["11:00 AM - 10:00 PM"],"Tuesday":["11:00 AM - 10:00 PM"],"Friday":["11:00 AM - 10:00 PM"],"Thursday":["11:00 AM - 10:00 PM"]},"timezone":"US/Eastern"},{"apiKey":"ee3f841c5988f406144247b91fbcb2f33a3f66cf2e75b727","logoUrl":"https://eatstreet-static.s3.amazonaws.com/assets/images/restaurant_logos/larry-js-bbq-24102_1418680861362.png","name":"Larry J's BBQ","streetAddress":"600 D St","city":"South Boston","state":"MA","zip":"02210","foodTypes":["American Food","Catering","BBQ"],"phone":"(617) 348-9800","latitude":42.348677,"longitude":-71.039677,"minFreeDelivery":0.00,"taxRate":0.0625,"acceptsCash":true,"acceptsCard":true,"offersPickup":true,"offersDelivery":false,"isTestRestaurant":false,"minWaitTime":45,"maxWaitTime":60,"open":false,"url":"https://eatstreet.com/boston-ma/restaurants/larry-js-bbq","hours":{"Monday":["11:30 AM - 7:00 PM"],"Saturday":["1:00 PM - 7:00 PM"],"Wednesday":["11:30 AM - 7:00 PM"],"Tuesday":["11:30 AM - 7:00 PM"],"Friday":["11:30 AM - 7:00 PM"],"Thursday":["11:30 AM - 7:00 PM"]},"timezone":"US/Eastern"},{"apiKey":"ee3f841c5988f406884225aec137a02a10eaf105069fc2e5","deliveryMin":15.00,"deliveryPrice":1.99,"logoUrl":"https://eatstreet-static.s3.amazonaws.com/assets/images/restaurant_logos/laz-cafe-16037_1401922046937.png","name":"Laz Cafe","streetAddress":"1744 Washington St","city":"Boston","state":"MA","zip":"02118","foodTypes":["Subs & Sandwiches","Pizza"],"phone":"(617) 536-0066","latitude":42.336495,"longitude":-71.076476,"minFreeDelivery":0.00,"taxRate":0.0630,"acceptsCash":true,"acceptsCard":true,"offersPickup":true,"offersDelivery":true,"isTestRestaurant":false,"minWaitTime":45,"maxWaitTime":60,"open":false,"url":"https://eatstreet.com/boston-ma/restaurants/laz-cafe","hours":{"Monday":["10:30 AM - 11:30 PM"],"Saturday":["9:00 AM - 11:30 PM"],"Sunday":["9:00 AM - 11:30 PM"],"Wednesday":["10:30 AM - 11:30 PM"],"Tuesday":["10:30 AM - 11:30 PM"],"Friday":["10:30 AM - 11:30 PM"],"Thursday":["10:30 AM - 11:30 PM"]},"timezone":"US/Eastern"},{"apiKey":"ee3f841c5988f406884225aec137a02ad762fc2f1c516442","deliveryMin":10.00,"logoUrl":"https://eatstreet-static.s3.amazonaws.com/assets/images/restaurant_logos/lee-chens-chinese-food-14250_1401748988859.png","name":"Lee Chen's Chinese Food","streetAddress":"475 W. Broadway","city":"South Boston","state":"MA","zip":"01440","foodTypes":["Chinese Food","Mexican Food","Mexican","Chinese"],"phone":"(617) 269-0061","latitude":42.335533,"longitude":-71.045989,"minFreeDelivery":0.00,"taxRate":0.0630,"acceptsCash":true,"acceptsCard":true,"offersPickup":true,"offersDelivery":true,"isTestRestaurant":false,"minWaitTime":45,"maxWaitTime":60,"open":true,"url":"https://eatstreet.com/boston-ma/restaurants/lee-chens-chinese-food","hours":{"Monday":["4:00 PM - 2:00 AM"],"Saturday":["4:00 PM - 2:00 AM"],"Sunday":["4:00 PM - 2:00 AM"],"Wednesday":["4:00 PM - 2:00 AM"],"Tuesday":["4:00 PM - 2:00 AM"],"Friday":["4:00 PM - 2:00 AM"],"Thursday":["4:00 PM - 2:00 AM"]},"timezone":"US/Eastern"},{"apiKey":"ee3f841c5988f406fe2bbabe6b94d9a6d3bbd0b6defc280d","deliveryMin":10.00,"logoUrl":"https://eatstreet-static.s3.amazonaws.com/assets/images/restaurant_logos/lillys-gourmet-pasta-express-8407_1418681756597.png","name":"Lilly's Gourmet Pasta Express","streetAddress":"1528 Tremont St","city":"Roxbury","state":"MA","zip":"02120","foodTypes":["Italian Food"],"phone":"(617) 427-8080","latitude":42.3322667,"longitude":-71.1000172,"minFreeDelivery":0.00,"taxRate":0.0630,"acceptsCash":true,"acceptsCard":true,"offersPickup":true,"offersDelivery":true,"isTestRestaurant":false,"minWaitTime":45,"maxWaitTime":60,"open":false,"url":"https://eatstreet.com/boston-ma/restaurants/lillys-gourmet-pasta-express","hours":{"Monday":["11:00 AM - 10:00 PM"],"Saturday":["12:00 PM - 10:00 PM"],"Sunday":["12:00 PM - 10:00 PM"],"Wednesday":["11:00 AM - 10:00 PM"],"Tuesday":["11:00 AM - 10:00 PM"],"Friday":["11:00 AM - 10:00 PM"],"Thursday":["11:00 AM - 10:00 PM"]},"timezone":"US/Eastern"},{"apiKey":"ee3f841c5988f40665357bbaef9033f481978b2177644f73","deliveryMin":10.00,"logoUrl":"https://eatstreet-static.s3.amazonaws.com/assets/images/restaurant_logos/los-paisanos-restaurant-9903_1418750005029.png","name":"Los Paisanos Restaurant","streetAddress":"62 Broadway","city":"Somerville","state":"MA","zip":"01906","foodTypes":["Mexican Food","Mexican"],"phone":"(617) 629-3502","latitude":42.386583,"longitude":-71.080687,"minFreeDelivery":0.00,"taxRate":0.0700,"acceptsCash":true,"acceptsCard":true,"offersPickup":true,"offersDelivery":true,"isTestRestaurant":false,"minWaitTime":45,"maxWaitTime":60,"open":false,"url":"https://eatstreet.com/boston-ma/restaurants/los-paisanos-restaurant","hours":{"Monday":["8:00 AM - 9:45 PM"],"Saturday":["8:00 AM - 9:45 PM"],"Sunday":["8:00 AM - 9:45 PM"],"Wednesday":["8:00 AM - 9:45 PM"],"Tuesday":["8:00 AM - 9:45 PM"],"Friday":["8:00 AM - 9:45 PM"],"Thursday":["8:00 AM - 9:45 PM"]},"timezone":"US/Eastern"},{"apiKey":"ee3f841c5988f406f15b4f2e73e7618037d3838f74265656","deliveryMin":15.00,"logoUrl":"https://eatstreet-static.s3.amazonaws.com/assets/images/restaurant_logos/lotus-xpress-34999_1451683776337.png","name":"Lotus Xpress","streetAddress":"167 Broadway","city":"Somerville","state":"MA","zip":"02145","foodTypes":["Chinese Food","Sushi","Japanese Food"],"phone":"(617) 629-5909","latitude":42.388939,"longitude":-71.085935,"minFreeDelivery":0.00,"taxRate":0.0700,"acceptsCash":true,"acceptsCard":true,"offersPickup":true,"offersDelivery":true,"isTestRestaurant":false,"minWaitTime":45,"maxWaitTime":60,"open":false,"url":"https://eatstreet.com/boston-ma/restaurants/lotus-xpress","hours":{"Monday":["11:30 AM - 9:30 PM"],"Saturday":["11:30 AM - 10:30 PM"],"Sunday":["11:30 AM - 9:30 PM"],"Wednesday":["11:30 AM - 9:30 PM"],"Friday":["11:30 AM - 10:30 PM"],"Thursday":["11:30 AM - 9:30 PM"]},"timezone":"US/Eastern"},{"apiKey":"ee3f841c5988f406144247b91fbcb2f39507e980f56a94db","deliveryMin":12.00,"logoUrl":"https://eatstreet-static.s3.amazonaws.com/assets/images/restaurant_logos/mamas-place-22511_1409696682710.png","name":"Mama's Place","streetAddress":"764A Huntington Ave","city":"Boston","state":"MA","zip":"02115","foodTypes":["Greek Food","Seafood","Burgers","Subs & Sandwiches"],"phone":"(617) 566-1300","latitude":42.333483,"longitude":-71.106118,"minFreeDelivery":0.00,"taxRate":0.0625,"acceptsCash":true,"acceptsCard":true,"offersPickup":true,"offersDelivery":true,"isTestRestaurant":false,"minWaitTime":45,"maxWaitTime":60,"open":false,"url":"https://eatstreet.com/boston-ma/restaurants/mamas-place","hours":{"Monday":["10:00 AM - 9:50 PM"],"Saturday":["10:00 AM - 9:50 PM"],"Wednesday":["10:00 AM - 9:50 PM"],"Tuesday":["10:00 AM - 9:50 PM"],"Friday":["10:00 AM - 9:50 PM"],"Thursday":["10:00 AM - 9:50 PM"]},"timezone":"US/Eastern"},{"apiKey":"ee3f841c5988f406884225aec137a02abc3d3f3c30865afc","deliveryMin":10.00,"logoUrl":"https://eatstreet-static.s3.amazonaws.com/assets/images/restaurant_logos/martins-coffee-shop-11052_1418760756093.png","name":"Martin's Coffee Shop","streetAddress":"35 Harvard St","city":"Brookline","state":"MA","zip":"02124","foodTypes":["Subs & Sandwiches","Diner Food","Coffee & Tea","Breakfast","Diners","Breakfast & Brunch"],"phone":"(617) 566-0005","latitude":42.334439,"longitude":-71.118984,"minFreeDelivery":0.00,"taxRate":0.0630,"acceptsCash":true,"acceptsCard":true,"offersPickup":true,"offersDelivery":true,"isTestRestaurant":false,"minWaitTime":45,"maxWaitTime":60,"open":false,"url":"https://eatstreet.com/boston-ma/restaurants/martins-coffee-shop","hours":{"Monday":["8:00 AM - 3:00 PM"],"Saturday":["8:00 AM - 3:00 PM"],"Sunday":["8:00 AM - 3:00 PM"],"Wednesday":["8:00 AM - 3:00 PM"],"Tuesday":["8:00 AM - 3:00 PM"],"Friday":["8:00 AM - 3:00 PM"],"Thursday":["8:00 AM - 3:00 PM"]},"timezone":"US/Eastern"},{"apiKey":"ee3f841c5988f406884225aec137a02a7fe5c81b1d4657d7","deliveryMin":12.00,"logoUrl":"https://eatstreet-static.s3.amazonaws.com/assets/images/restaurant_logos/mass-ave-pita-13461_1401481898505.png","name":"Mass Ave Pita","streetAddress":"197 Massachusetts Ave","city":"Boston","state":"MA","zip":"02115","foodTypes":["Subs & Sandwiches","Middle Eastern Food","Mediterranean Food","Mediterranean","Middle Eastern"],"phone":"(857) 263-8390","latitude":42.345311,"longitude":-71.087075,"minFreeDelivery":0.00,"taxRate":0.0700,"acceptsCash":true,"acceptsCard":true,"offersPickup":true,"offersDelivery":true,"isTestRestaurant":false,"minWaitTime":45,"maxWaitTime":60,"open":false,"url":"https://eatstreet.com/boston-ma/restaurants/mass-ave-pita","hours":{"Monday":["10:30 AM - 9:30 PM"],"Saturday":["10:30 AM - 9:30 PM"],"Sunday":["10:30 AM - 9:30 PM"],"Wednesday":["10:30 AM - 9:30 PM"],"Tuesday":["10:30 AM - 9:30 PM"],"Friday":["10:30 AM - 9:30 PM"],"Thursday":["10:30 AM - 9:30 PM"]},"timezone":"US/Eastern"},{"apiKey":"ee3f841c5988f406ab9b56a2a4d9fc148324e2bde898f86b","deliveryMin":15.00,"logoUrl":"https://eatstreet-static.s3.amazonaws.com/assets/images/restaurant_logos/mass-chicken-6146_1377197911865.png","name":"Mass Chicken","streetAddress":"736 Massachusetts Ave","city":"Cambridge","state":"MA","zip":"02139","foodTypes":["Wings","Chicken Shop","Persian Food","Chicken","Chicken Wings"],"phone":"(617) 234-4450","latitude":42.366094,"longitude":-71.105211,"minFreeDelivery":-1.0000,"taxRate":0.0700,"acceptsCash":true,"acceptsCard":true,"offersPickup":true,"offersDelivery":false,"isTestRestaurant":false,"minWaitTime":45,"maxWaitTime":60,"open":false,"url":"https://eatstreet.com/boston-ma/restaurants/mass-chicken","hours":{"Monday":["5:00 PM - 11:00 PM"],"Saturday":["5:00 PM - 11:00 PM"],"Sunday":["5:00 PM - 10:00 PM"],"Wednesday":["5:00 PM - 11:00 PM"],"Tuesday":["5:00 PM - 11:00 PM"],"Friday":["5:00 PM - 11:00 PM"],"Thursday":["5:00 PM - 11:00 PM"]},"timezone":"US/Eastern"},{"apiKey":"ee3f841c5988f406884225aec137a02ae0380ba67be99e01","deliveryMin":10.00,"deliveryPrice":2.00,"logoUrl":"https://eatstreet-static.s3.amazonaws.com/assets/images/restaurant_logos/maya-sol-mexican-grill-11714_1399494270294.png","name":"Maya Sol Mexican Grill","streetAddress":"179 Broadway","city":"Somerville","state":"MA","zip":"02149","foodTypes":["Mexican","Latin American"],"phone":"(617) 776-9179","latitude":42.389041,"longitude":-71.086544,"minFreeDelivery":0.00,"taxRate":0.0630,"acceptsCash":true,"acceptsCard":true,"offersPickup":true,"offersDelivery":true,"isTestRestaurant":false,"minWaitTime":45,"maxWaitTime":60,"open":false,"url":"https://eatstreet.com/boston-ma/restaurants/maya-sol-mexican-grill","hours":{"Monday":["10:00 AM - 11:00 PM"],"Saturday":["10:00 AM - 11:00 PM"],"Sunday":["10:00 AM - 11:00 PM"],"Wednesday":["10:00 AM - 11:00 PM"],"Tuesday":["10:00 AM - 11:00 PM"],"Friday":["10:00 AM - 11:00 PM"],"Thursday":["10:00 AM - 11:00 PM"]},"timezone":"US/Eastern"},{"apiKey":"ee3f841c5988f406144247b91fbcb2f3ed581bd6b9f12ba8","deliveryMin":8.00,"logoUrl":"https://eatstreet-static.s3.amazonaws.com/assets/images/restaurant_logos/mcgoos-pizza-21170_1408411466534.png","name":"McGoo's Pizza","streetAddress":"479 Broadway","city":"South Boston","state":"MA","zip":"02127","foodTypes":["Subs & Sandwiches","Pizza","Healthy Food"],"phone":"(617) 268-4444","latitude":42.3355418,"longitude":-71.0458269,"minFreeDelivery":0.00,"taxRate":0.0625,"acceptsCash":true,"acceptsCard":true,"offersPickup":true,"offersDelivery":true,"isTestRestaurant":false,"minWaitTime":45,"maxWaitTime":60,"open":false,"url":"https://eatstreet.com/boston-ma/restaurants/mcgoos-pizza","hours":{"Monday":["11:00 AM - 11:00 PM"],"Saturday":["11:00 AM - 12:00 AM"],"Sunday":["11:00 AM - 11:00 PM"],"Wednesday":["11:00 AM - 11:00 PM"],"Tuesday":["11:00 AM - 11:00 PM"],"Friday":["11:00 AM - 12:00 AM"],"Thursday":["11:00 AM - 12:00 AM"]},"timezone":"US/Eastern"},{"apiKey":"ee3f841c5988f406fe2bbabe6b94d9a63b2e1d29d99b1dc5","deliveryMin":20.00,"logoUrl":"https://eatstreet-static.s3.amazonaws.com/assets/images/restaurant_logos/mela-indian-restaurant-8935_1393978045155.png","name":"Mela Indian Restaurant","streetAddress":"578 Tremont St","city":"Boston","state":"MA","zip":"02118","foodTypes":["Indian Food","Indian"],"phone":"(617) 859-4805","latitude":42.343343,"longitude":-71.072545,"minFreeDelivery":0.00,"taxRate":0.0630,"acceptsCash":false,"acceptsCard":true,"offersPickup":true,"offersDelivery":true,"isTestRestaurant":false,"minWaitTime":45,"maxWaitTime":60,"open":false,"url":"https://eatstreet.com/boston-ma/restaurants/mela-indian-restaurant","hours":{},"timezone":"US/Eastern"},{"apiKey":"ee3f841c5988f406884225aec137a02ae58b78235ee562d9","deliveryMin":50.00,"deliveryPrice":6.95,"logoUrl":"https://eatstreet-static.s3.amazonaws.com/assets/images/restaurant_logos/metropolitan-desserts-11286_1399057047784.png","name":"Metropolitan Desserts","streetAddress":"1024 Commonwealth Avenue","city":"Boston","state":"MA","zip":"02215","foodTypes":["Dessert","Desserts"],"phone":"(617) 277-2253","latitude":42.351639,"longitude":-71.121799,"minFreeDelivery":0.00,"taxRate":0.0630,"acceptsCash":true,"acceptsCard":true,"offersPickup":true,"offersDelivery":true,"isTestRestaurant":false,"minWaitTime":45,"maxWaitTime":60,"open":false,"url":"https://eatstreet.com/boston-ma/restaurants/metropolitan-desserts","hours":{"Monday":["8:00 AM - 12:00 AM"],"Saturday":["9:00 AM - 12:00 AM"],"Sunday":["9:00 AM - 12:00 AM"],"Wednesday":["8:00 AM - 12:00 AM"],"Tuesday":["8:00 AM - 12:00 AM"],"Friday":["9:00 AM - 12:00 AM"],"Thursday":["8:00 AM - 12:00 AM"]},"timezone":"US/Eastern"},{"apiKey":"ee3f841c5988f40665357bbaef9033f4039f57d9c99a2a33","deliveryMin":13.00,"logoUrl":"https://eatstreet-static.s3.amazonaws.com/assets/images/restaurant_logos/midwest-grill-9733_1418761907211.png","name":"Midwest Grill","streetAddress":"1124 Cambridge St","city":"Cambridge","state":"MA","zip":"02139","foodTypes":["Latin American Food","BBQ","Steakhouses","Brazilian","Barbeque"],"phone":"(617) 354-7536","latitude":42.372855,"longitude":-71.09603,"minFreeDelivery":0.00,"taxRate":0.0630,"acceptsCash":true,"acceptsCard":true,"offersPickup":true,"offersDelivery":true,"isTestRestaurant":false,"minWaitTime":45,"maxWaitTime":60,"open":false,"url":"https://eatstreet.com/boston-ma/restaurants/midwest-grill","hours":{"Monday":["11:30 AM - 11:45 PM"],"Saturday":["12:00 PM - 11:45 PM"],"Sunday":["12:00 PM - 11:45 PM"],"Wednesday":["11:30 AM - 11:45 PM"],"Tuesday":["11:30 AM - 11:45 PM"],"Friday":["11:30 AM - 11:45 PM"],"Thursday":["11:30 AM - 11:45 PM"]},"timezone":"US/Eastern"},{"apiKey":"ee3f841c5988f406f15b4f2e73e76180f63c790b98780e08","deliveryMin":20.00,"logoUrl":"https://eatstreet-static.s3.amazonaws.com/assets/images/restaurant_logos/momo-n-curry-32500_1440527648472.png","name":"Momo N Curry","streetAddress":"431 Somerville Ave","city":"Somerville","state":"MA","zip":"02143","foodTypes":["Himalayan & Nepalese Food","Indian Food","Himalayan/Nepalese","Indian"],"phone":"(617) 764-1563","latitude":42.382115,"longitude":-71.10186,"minFreeDelivery":0.00,"taxRate":0.0700,"acceptsCash":true,"acceptsCard":true,"offersPickup":true,"offersDelivery":true,"isTestRestaurant":false,"minWaitTime":45,"maxWaitTime":60,"open":false,"url":"https://eatstreet.com/boston-ma/restaurants/momo-n-curry","hours":{"Monday":["11:00 AM - 11:00 PM"],"Saturday":["11:00 AM - 11:00 PM"],"Sunday":["11:00 AM - 11:00 PM"],"Wednesday":["11:00 AM - 11:00 PM"],"Tuesday":["11:00 AM - 11:00 PM"],"Friday":["11:00 AM - 11:00 PM"],"Thursday":["11:00 AM - 11:00 PM"]},"timezone":"US/Eastern"},{"apiKey":"ee3f841c5988f406144247b91fbcb2f3dd9060d2f40d95d4","deliveryMin":10.00,"logoUrl":"https://eatstreet-static.s3.amazonaws.com/assets/images/restaurant_logos/mona-lisa-pizza-and-grill-24816_1414435526651.png","name":"Mona Lisa Pizza & Grill","streetAddress":"1621 Cambridge St","city":"Cambridge","state":"MA","zip":"02138","foodTypes":["Subs & Sandwiches","Seafood","Pasta","Pizza","Healthy Food","PIzza"],"phone":"(617) 491-1888","latitude":42.374808,"longitude":-71.109192,"minFreeDelivery":0.00,"taxRate":0.0625,"acceptsCash":true,"acceptsCard":true,"offersPickup":true,"offersDelivery":true,"isTestRestaurant":false,"minWaitTime":45,"maxWaitTime":60,"open":false,"url":"https://eatstreet.com/boston-ma/restaurants/mona-lisa-pizza-and-grill","hours":{"Monday":["10:00 AM - 9:00 PM"],"Saturday":["11:00 AM - 9:00 PM"],"Sunday":["11:00 AM - 9:00 PM"],"Wednesday":["10:00 AM - 9:00 PM"],"Tuesday":["10:00 AM - 9:00 PM"],"Friday":["10:00 AM - 9:00 PM"],"Thursday":["10:00 AM - 9:00 PM"]},"timezone":"US/Eastern"},{"apiKey":"ee3f841c5988f406144247b91fbcb2f3f7b4d6b2806ea2c7","deliveryMin":8.00,"deliveryPrice":2.00,"logoUrl":"https://eatstreet-static.s3.amazonaws.com/assets/images/restaurant_logos/montecristo-mexican-grill-20813_1408230410384.png","name":"Montecristo Mexican Grill","streetAddress":"748 Huntington Ave # A","city":"Boston","state":"MA","zip":"02115","foodTypes":["Mexican"],"phone":"(617) 232-2228","latitude":42.3339837,"longitude":-71.1051229,"minFreeDelivery":0.00,"taxRate":0.0625,"acceptsCash":true,"acceptsCard":true,"offersPickup":true,"offersDelivery":true,"isTestRestaurant":false,"minWaitTime":45,"maxWaitTime":60,"open":false,"url":"https://eatstreet.com/boston-ma/restaurants/montecristo-mexican-grill","hours":{"Monday":["8:00 AM - 12:15 AM"],"Saturday":["8:00 AM - 12:15 AM"],"Sunday":["8:00 AM - 12:15 AM"],"Wednesday":["8:00 AM - 12:15 AM"],"Tuesday":["8:00 AM - 12:15 AM"],"Friday":["8:00 AM - 12:15 AM"],"Thursday":["8:00 AM - 12:15 AM"]},"timezone":"US/Eastern"},{"apiKey":"ee3f841c5988f406884225aec137a02a28a7da484788414a","deliveryMin":20.00,"logoUrl":"https://eatstreet-static.s3.amazonaws.com/assets/images/restaurant_logos/montien-boston-28thai-and-sushi29-12488_1400797888290.png","name":"Montien Thai Restaurant","streetAddress":"63 Stuart St","city":"Boston","state":"MA","zip":"02116","foodTypes":["Seafood","Cocktail Bars","Bar/Pub Food","Thai Food","Thai"],"phone":"(617) 338-5600","latitude":42.351104,"longitude":-71.064366,"minFreeDelivery":0.00,"taxRate":0.0700,"acceptsCash":true,"acceptsCard":true,"offersPickup":true,"offersDelivery":true,"isTestRestaurant":false,"minWaitTime":75,"maxWaitTime":90,"open":false,"url":"https://eatstreet.com/boston-ma/restaurants/montien-thai-boston","hours":{"Monday":["11:30 AM - 9:45 PM"],"Saturday":["11:30 AM - 10:45 PM"],"Sunday":["4:00 PM - 9:45 PM"],"Wednesday":["11:30 AM - 10:15 PM"],"Tuesday":["11:30 AM - 10:15 PM"],"Friday":["11:30 AM - 10:45 PM"],"Thursday":["11:30 AM - 10:15 PM"]},"timezone":"US/Eastern"},{"apiKey":"ee3f841c5988f406459c89af9c6802052b85676607ba0d58","deliveryMin":150.00,"deliveryPrice":30.00,"logoUrl":"https://eatstreet-static.s3.amazonaws.com/assets/images/restaurant_logos/moona-40211_1488923877125.png","name":"Moona","streetAddress":"243 Hampshire St","city":"Cambridge","state":"MA","zip":"2139","foodTypes":["Mediterranean"],"phone":"(617) 945-7448","latitude":42.3741762,"longitude":-71.1032182,"minFreeDelivery":0.00,"taxRate":0.0625,"acceptsCash":true,"acceptsCard":true,"offersPickup":true,"offersDelivery":true,"isTestRestaurant":false,"minWaitTime":45,"maxWaitTime":60,"open":false,"url":"https://eatstreet.com/boston-ma/restaurants/moona","hours":{"Monday":["5:00 PM - 10:00 PM"],"Saturday":["5:00 PM - 11:00 PM"],"Sunday":["5:00 PM - 10:00 PM"],"Wednesday":["5:00 PM - 10:00 PM"],"Tuesday":["5:00 PM - 10:00 PM"],"Friday":["5:00 PM - 11:00 PM"],"Thursday":["5:00 PM - 10:00 PM"]},"timezone":"US/Eastern"},{"apiKey":"ee3f841c5988f406884225aec137a02a2da8a5b222fd8dcd","deliveryMin":0.00,"deliveryPrice":5.95,"logoUrl":"https://eatstreet-static.s3.amazonaws.com/assets/images/restaurant_logos/mr-bs-restaurant-and-pizzeria-13005_1401222286024.png","name":"Mr. B's All-Day Breakfast & Pizzeria","streetAddress":"142 Cross St","city":"Somerville","state":"MA","zip":"01844","foodTypes":["Pizza"],"phone":"(617) 718-0777","latitude":42.382528,"longitude":-71.090037,"minFreeDelivery":0.00,"taxRate":0.0630,"acceptsCash":true,"acceptsCard":true,"offersPickup":true,"offersDelivery":true,"isTestRestaurant":false,"minWaitTime":45,"maxWaitTime":60,"open":false,"url":"https://eatstreet.com/boston-ma/restaurants/mr-bs-all-day-breakfast-and-pizza","hours":{"Monday":["9:00 AM - 2:00 AM"],"Saturday":["9:00 AM - 4:00 AM"],"Sunday":["9:00 AM - 2:00 AM"],"Wednesday":["9:00 AM - 2:00 AM"],"Tuesday":["9:00 AM - 2:00 AM"],"Friday":["9:00 AM - 4:00 AM"],"Thursday":["9:00 AM - 2:00 AM"]},"timezone":"US/Eastern"},{"apiKey":"ee3f841c5988f406884225aec137a02aa91b634ba17da755","deliveryMin":10.00,"logoUrl":"https://eatstreet-static.s3.amazonaws.com/assets/images/restaurant_logos/natalies-pizzeria-10560_1418764622448.png","name":"Natalie's Pizzeria","streetAddress":"1312 Commonwealth Avenue","city":"Allston","state":"MA","zip":"02465","foodTypes":["Pizza"],"phone":"(617) 277-7662","latitude":42.34845,"longitude":-71.134424,"minFreeDelivery":0.00,"taxRate":0.0630,"acceptsCash":true,"acceptsCard":true,"offersPickup":true,"offersDelivery":true,"isTestRestaurant":false,"minWaitTime":45,"maxWaitTime":60,"open":true,"url":"https://eatstreet.com/boston-ma/restaurants/natalies-pizzeria","hours":{"Monday":["11:00 AM - 2:45 AM"],"Saturday":["11:00 AM - 2:45 AM"],"Sunday":["11:00 AM - 2:45 AM"],"Wednesday":["11:00 AM - 2:45 AM"],"Tuesday":["11:00 AM - 2:45 AM"],"Friday":["11:00 AM - 2:45 AM"],"Thursday":["11:00 AM - 2:45 AM"]},"timezone":"US/Eastern"},{"apiKey":"ee3f841c5988f406f15b4f2e73e76180a755a4fdd88df220","deliveryMin":0.00,"logoUrl":"https://eatstreet-static.s3.amazonaws.com/assets/images/restaurant_logos/nicks-place-winthrop-34513_1448301391248.png","name":"Nick's Place - Winthrop","streetAddress":"70 Pauline St","city":"Winthrop","state":"MA","zip":"02152","foodTypes":["Subs & Sandwiches","Pasta","Pizza","Healthy Food","Greek Food","Greek","Sandwiches","Salad"],"phone":"(617) 846-9800","latitude":42.376141,"longitude":-70.986187,"minFreeDelivery":0.00,"taxRate":0.0700,"acceptsCash":true,"acceptsCard":true,"offersPickup":true,"offersDelivery":true,"isTestRestaurant":false,"minWaitTime":45,"maxWaitTime":60,"open":false,"url":"https://eatstreet.com/boston-ma/restaurants/nicks-place-winthrop","hours":{"Monday":["9:00 AM - 10:00 PM"],"Saturday":["9:00 AM - 10:00 PM"],"Sunday":["9:00 AM - 10:00 PM"],"Wednesday":["9:00 AM - 10:00 PM"],"Tuesday":["9:00 AM - 10:00 PM"],"Friday":["9:00 AM - 10:00 PM"],"Thursday":["9:00 AM - 10:00 PM"]},"timezone":"US/Eastern"},{"apiKey":"ee3f841c5988f406f15b4f2e73e7618078300f5fae4a0b86","deliveryMin":15.00,"logoUrl":"https://eatstreet-static.s3.amazonaws.com/assets/images/restaurant_logos/nicoles-south-end-35395_1455664789102.png","name":"Nicole's South End","streetAddress":"639 Tremont St","city":"Boston","state":"MA","zip":"02118","foodTypes":["Subs & Sandwiches","Wings","Pizza","Chicken Wings","Sandwiches"],"phone":"(617) 266-0111","latitude":42.342368,"longitude":-71.075197,"minFreeDelivery":0.00,"taxRate":0.0625,"acceptsCash":true,"acceptsCard":true,"offersPickup":true,"offersDelivery":true,"isTestRestaurant":false,"minWaitTime":45,"maxWaitTime":60,"open":false,"url":"https://eatstreet.com/boston-ma/restaurants/nicoles-south-end","hours":{"Monday":["11:00 AM - 11:00 PM"],"Saturday":["11:00 AM - 11:00 PM"],"Sunday":["11:00 AM - 11:00 PM"],"Wednesday":["11:00 AM - 11:00 PM"],"Tuesday":["11:00 AM - 11:00 PM"],"Friday":["11:00 AM - 11:00 PM"],"Thursday":["11:00 AM - 11:00 PM"]},"timezone":"US/Eastern"},{"apiKey":"ee3f841c5988f406459c89af9c680205fdc6897876a94076","deliveryMin":20.00,"logoUrl":"https://eatstreet-static.s3.amazonaws.com/assets/images/restaurant_logos/nirvana3a-the-taste-of-india-40262_1489778168228.png","name":"Nirvana: The Taste of India","streetAddress":"1680 Massachusetts Ave","city":"Cambridge","state":"MA","zip":"02138","foodTypes":["Indian"],"phone":"(617) 441-5566","latitude":42.3824577,"longitude":-71.120544,"minFreeDelivery":0.00,"taxRate":0.0625,"acceptsCash":true,"acceptsCard":true,"offersPickup":true,"offersDelivery":true,"isTestRestaurant":false,"minWaitTime":45,"maxWaitTime":60,"open":false,"url":"https://eatstreet.com/boston-ma/restaurants/nirvana-the-taste-of-india","hours":{"Monday":["11:30 AM - 11:00 PM"],"Saturday":["11:30 AM - 11:00 PM"],"Sunday":["11:30 AM - 11:00 PM"],"Wednesday":["11:30 AM - 11:00 PM"],"Tuesday":["11:30 AM - 11:00 PM"],"Friday":["11:30 AM - 11:00 PM"],"Thursday":["11:30 AM - 11:00 PM"]},"timezone":"US/Eastern"},{"apiKey":"ee3f841c5988f406f15b4f2e73e761804b087cb5656ba9e7","logoUrl":"https://eatstreet-static.s3.amazonaws.com/assets/images/restaurant_logos/north-end-fish-35330_1453843719599.png","name":"North End Fish","streetAddress":"99 Salem St","city":"Boston","state":"MA","zip":"02113","foodTypes":["Seafood","Sushi","Seafood Markets"],"phone":"(857) 362-7477","latitude":42.363922,"longitude":-71.055526,"minFreeDelivery":0.00,"taxRate":0.0625,"acceptsCash":true,"acceptsCard":true,"offersPickup":true,"offersDelivery":false,"isTestRestaurant":false,"minWaitTime":45,"maxWaitTime":60,"open":false,"url":"https://eatstreet.com/boston-ma/restaurants/north-end-fish","hours":{"Monday":["10:00 AM - 8:00 PM"],"Saturday":["10:00 AM - 8:00 PM"],"Sunday":["10:00 AM - 8:00 PM"],"Wednesday":["10:00 AM - 8:00 PM"],"Tuesday":["10:00 AM - 8:00 PM"],"Friday":["10:00 AM - 8:00 PM"],"Thursday":["10:00 AM - 8:00 PM"]},"timezone":"US/Eastern"},{"apiKey":"ee3f841c5988f406144247b91fbcb2f3b20d904ee47b6d07","deliveryMin":25.00,"deliveryPrice":0.00,"logoUrl":"https://eatstreet-static.s3.amazonaws.com/assets/images/restaurant_logos/nunzios-pizzeria-22384_1409695253578.png","name":"Nunzio's Pizzeria","streetAddress":"195 State St.","city":"Boston","state":"MA","zip":"02109","foodTypes":["Subs & Sandwiches","Pizza","Breakfast"],"phone":"(617) 723-4321","latitude":42.359307,"longitude":-71.052655,"minFreeDelivery":0.00,"taxRate":0.0700,"acceptsCash":true,"acceptsCard":true,"offersPickup":true,"offersDelivery":true,"isTestRestaurant":false,"minWaitTime":45,"maxWaitTime":60,"open":false,"url":"https://eatstreet.com/boston-ma/restaurants/nunzios-pizzeria","hours":{"Monday":["8:00 AM - 2:00 PM"],"Wednesday":["8:00 AM - 2:00 PM"],"Tuesday":["8:00 AM - 2:00 PM"],"Friday":["8:00 AM - 2:00 PM"],"Thursday":["8:00 AM - 2:00 PM"]},"timezone":"US/Eastern"},{"apiKey":"ee3f841c5988f406884225aec137a02a27c2497741de611d","deliveryMin":0.00,"logoUrl":"https://eatstreet-static.s3.amazonaws.com/assets/images/restaurant_logos/odyssey-grill-11162_1398725950707.png","name":"Odyssey Grill","streetAddress":"63 Main St","city":"Winthrop","state":"MA","zip":"02152","foodTypes":["Subs & Sandwiches","Italian Food","Greek Food","Italian","Greek"],"phone":"(617) 846-7200","latitude":42.38237,"longitude":-70.991867,"minFreeDelivery":0.00,"taxRate":0.0600,"acceptsCash":true,"acceptsCard":true,"offersPickup":true,"offersDelivery":true,"isTestRestaurant":false,"minWaitTime":45,"maxWaitTime":60,"open":false,"url":"https://eatstreet.com/boston-ma/restaurants/odyssey-grill","hours":{"Monday":["11:00 AM - 10:00 PM"],"Saturday":["11:00 AM - 10:00 PM"],"Sunday":["11:00 AM - 9:00 PM"],"Wednesday":["11:00 AM - 10:00 PM"],"Tuesday":["11:00 AM - 10:00 PM"],"Friday":["11:00 AM - 10:00 PM"],"Thursday":["11:00 AM - 10:00 PM"]},"timezone":"US/Eastern"},{"apiKey":"ee3f841c5988f406884225aec137a02a28e00398dfabdba2","deliveryMin":20.00,"deliveryPrice":10.00,"logoUrl":"https://eatstreet-static.s3.amazonaws.com/assets/images/restaurant_logos/oliver-street-cafe-16174_1402092127183.png","name":"Oliver Street Cafe","streetAddress":"260 Franklin St # 2","city":"Boston","state":"MA","zip":"02110","foodTypes":[""],"phone":"(617) 330-5355","latitude":0.0,"longitude":0.0,"minFreeDelivery":0.00,"taxRate":0.0550,"acceptsCash":true,"acceptsCard":true,"offersPickup":true,"offersDelivery":true,"isTestRestaurant":false,"minWaitTime":45,"maxWaitTime":60,"open":false,"url":"https://eatstreet.com/boston-ma/restaurants/oliver-street-cafe","hours":{"Monday":["9:00 AM - 12:00 PM"],"Wednesday":["9:00 AM - 12:00 PM"],"Tuesday":["9:00 AM - 12:00 PM"],"Friday":["9:00 AM - 12:00 PM"],"Thursday":["9:00 AM - 12:00 PM"]},"timezone":"US/Eastern"},{"apiKey":"ee3f841c5988f406884225aec137a02a901a762720b4cefb","deliveryMin":10.00,"logoUrl":"https://eatstreet-static.s3.amazonaws.com/assets/images/restaurant_logos/oriental-pearl-14904_1475603620084.png","name":"Oriental Pearl","streetAddress":"220 Washington St","city":"Brookline","state":"MA","zip":"02445","foodTypes":["Chinese Food","Vietnamese Food","Healthy Food","Thai Food","Soup","Vietnamese","Chinese","Thai"],"phone":"(617) 739-0008","latitude":42.332488,"longitude":-71.118689,"minFreeDelivery":0.00,"taxRate":0.0630,"acceptsCash":true,"acceptsCard":true,"offersPickup":true,"offersDelivery":true,"isTestRestaurant":false,"minWaitTime":45,"maxWaitTime":60,"open":false,"url":"https://eatstreet.com/boston-ma/restaurants/oriental-pearl","hours":{"Monday":["11:30 AM - 12:30 AM"],"Saturday":["11:30 AM - 12:30 AM"],"Sunday":["2:00 PM - 12:30 AM"],"Wednesday":["11:30 AM - 12:30 AM"],"Tuesday":["11:30 AM - 12:30 AM"],"Friday":["11:30 AM - 12:30 AM"],"Thursday":["11:30 AM - 12:30 AM"]},"timezone":"US/Eastern"},{"apiKey":"ee3f841c5988f406884225aec137a02ad7bab002da19d583","deliveryMin":15.00,"logoUrl":"https://eatstreet-static.s3.amazonaws.com/assets/images/restaurant_logos/palm-sugar-thai-cuisine-11571_1399323095502.png","name":"Palm Sugar Thai Cuisine","streetAddress":"195 Elm St","city":"Somerville","state":"MA","zip":"01436","foodTypes":["Thai Food","Thai"],"phone":"(617) 718-1759","latitude":42.393388,"longitude":-71.120335,"minFreeDelivery":0.00,"taxRate":0.0630,"acceptsCash":true,"acceptsCard":true,"offersPickup":true,"offersDelivery":true,"isTestRestaurant":false,"minWaitTime":45,"maxWaitTime":60,"open":false,"url":"https://eatstreet.com/boston-ma/restaurants/palm-sugar-thai-cuisine","hours":{"Saturday":["12:00 PM - 10:00 PM"],"Sunday":["12:00 PM - 10:00 PM"],"Wednesday":["11:30 AM - 10:00 PM"],"Tuesday":["11:30 AM - 10:00 PM"],"Friday":["11:30 AM - 10:00 PM"],"Thursday":["11:30 AM - 10:00 PM"]},"timezone":"US/Eastern"},{"apiKey":"ee3f841c5988f406144247b91fbcb2f3242942292ee49583","deliveryMin":20.00,"logoUrl":"https://eatstreet-static.s3.amazonaws.com/assets/images/restaurant_logos/pan-roma-23399_1411418305348.png","name":"Pan Roma","streetAddress":"1026A Commonwealth Ave","city":"Brookline","state":"MA","zip":"02215","foodTypes":["Pasta","Pizza","Italian Food","Healthy Food"],"phone":"(617) 734-7777","latitude":42.35153,"longitude":-71.121934,"minFreeDelivery":0.00,"taxRate":0.0700,"acceptsCash":false,"acceptsCard":true,"offersPickup":true,"offersDelivery":true,"isTestRestaurant":false,"minWaitTime":45,"maxWaitTime":60,"open":true,"url":"https://eatstreet.com/boston-ma/restaurants/pan-roma","hours":{"Monday":["3:30 PM - 1:30 AM"],"Saturday":["10:30 AM - 2:30 AM"],"Sunday":["10:30 AM - 2:30 AM"],"Wednesday":["3:30 PM - 1:30 AM"],"Tuesday":["3:30 PM - 1:30 AM"],"Friday":["10:30 AM - 2:30 AM"],"Thursday":["10:30 AM - 2:30 AM"]},"timezone":"US/Eastern"},{"apiKey":"ee3f841c5988f406884225aec137a02a17061520731c111b","deliveryMin":10.00,"logoUrl":"https://eatstreet-static.s3.amazonaws.com/assets/images/restaurant_logos/passage-to-india-10479_1397058021978.png","name":"Passage To India","streetAddress":"1900 Massachusetts Ave","city":"Cambridge","state":"MA","zip":"02421","foodTypes":["Pakistani Food","Smoothies & Juices","Indian Food","Indian","Pakistani"],"phone":"(617) 497-6113","latitude":42.388825,"longitude":-71.119814,"minFreeDelivery":0.00,"taxRate":0.0700,"acceptsCash":true,"acceptsCard":true,"offersPickup":true,"offersDelivery":true,"isTestRestaurant":false,"minWaitTime":45,"maxWaitTime":60,"open":false,"url":"https://eatstreet.com/boston-ma/restaurants/passage-to-india","hours":{"Monday":["11:30 AM - 10:30 PM"],"Saturday":["11:30 AM - 10:30 PM"],"Sunday":["11:30 AM - 10:30 PM"],"Wednesday":["11:30 AM - 10:30 PM"],"Tuesday":["11:30 AM - 10:30 PM"],"Friday":["11:30 AM - 10:30 PM"],"Thursday":["11:30 AM - 10:30 PM"]},"timezone":"US/Eastern"},{"apiKey":"ee3f841c5988f406fe2bbabe6b94d9a6919372ed60ff406d","deliveryMin":12.00,"logoUrl":"https://eatstreet-static.s3.amazonaws.com/assets/images/restaurant_logos/als-pizza-and-grill-8013_1418411564285.png","name":"Pat's Kitchen","streetAddress":"402 W. Broadway","city":"Boston","state":"MA","zip":"02127","foodTypes":["Subs & Sandwiches","Pizza","Sandwiches"],"phone":"(617) 268-7700","latitude":42.337213,"longitude":-71.048131,"minFreeDelivery":0.00,"taxRate":0.0630,"acceptsCash":true,"acceptsCard":true,"offersPickup":true,"offersDelivery":true,"isTestRestaurant":false,"minWaitTime":45,"maxWaitTime":60,"open":false,"url":"https://eatstreet.com/boston-ma/restaurants/pats-kitchen","hours":{"Monday":["11:00 AM - 9:30 PM"],"Saturday":["11:00 AM - 9:30 PM"],"Sunday":["11:00 AM - 9:30 PM"],"Wednesday":["11:00 AM - 9:30 PM"],"Tuesday":["11:00 AM - 9:30 PM"],"Friday":["11:00 AM - 9:30 PM"],"Thursday":["11:00 AM - 9:30 PM"]},"timezone":"US/Eastern"},{"apiKey":"ee3f841c5988f406f15b4f2e73e76180016e57bc70c770f9","deliveryMin":15.00,"logoUrl":"https://eatstreet-static.s3.amazonaws.com/assets/images/restaurant_logos/pho-house-35737_1456840506336.png","name":"Pho House","streetAddress":"1790 Massachusetts Ave","city":"Cambridge","state":"MA","zip":"02140","foodTypes":["Vietnamese Food","Thai Food","Vietnamese","Thai"],"phone":"(617) 547-8888","latitude":42.385937,"longitude":-71.119626,"minFreeDelivery":0.00,"taxRate":0.0700,"acceptsCash":true,"acceptsCard":true,"offersPickup":true,"offersDelivery":true,"isTestRestaurant":false,"minWaitTime":45,"maxWaitTime":60,"open":false,"url":"https://eatstreet.com/boston-ma/restaurants/pho-house","hours":{"Monday":["11:30 AM - 9:45 PM"],"Saturday":["11:30 AM - 9:45 PM"],"Sunday":["11:30 AM - 9:45 PM"],"Wednesday":["11:30 AM - 9:45 PM"],"Tuesday":["11:30 AM - 9:45 PM"],"Friday":["11:30 AM - 9:45 PM"],"Thursday":["11:30 AM - 9:45 PM"]},"timezone":"US/Eastern"},{"apiKey":"ee3f841c5988f406144247b91fbcb2f3b49f1ddf5699beb6","deliveryMin":10.00,"logoUrl":"https://eatstreet-static.s3.amazonaws.com/assets/images/restaurant_logos/pinis-pizzeria-23803_1411757745927.png","name":"Pini's Pizzeria","streetAddress":"511 Broadway","city":"Somerville","state":"MA","zip":"02145","foodTypes":["Subs & Sandwiches","Pizza","Italian Food"],"phone":"(617) 628-8668","latitude":42.397661,"longitude":-71.105349,"minFreeDelivery":0.00,"taxRate":0.0625,"acceptsCash":true,"acceptsCard":true,"offersPickup":true,"offersDelivery":true,"isTestRestaurant":false,"minWaitTime":45,"maxWaitTime":60,"open":false,"url":"https://eatstreet.com/boston-ma/restaurants/pinis-pizzeria","hours":{"Monday":["11:00 AM - 9:30 PM"],"Saturday":["11:00 AM - 10:30 PM"],"Sunday":["12:00 PM - 10:30 PM"],"Wednesday":["11:00 AM - 10:30 PM"],"Tuesday":["11:00 AM - 9:30 PM"],"Friday":["11:00 AM - 10:30 PM"],"Thursday":["11:00 AM - 10:30 PM"]},"timezone":"US/Eastern"},{"apiKey":"ee3f841c5988f406da325d7782b35bdb0780a0352f66b9bb","logoUrl":"https://eatstreet-static.s3.amazonaws.com/assets/images/restaurant_logos/pita-kabob-7147_1386201899978.png","name":"Pita Kabob","streetAddress":"2 Avenue de Lafayette","city":"Boston","state":"MA","zip":"02111","foodTypes":["Greek Food","Middle Eastern Food","Mediterranean Food","Greek"],"phone":"(617) 542-7482","latitude":42.366309,"longitude":-71.057531,"minFreeDelivery":-1.0000,"taxRate":0.0700,"acceptsCash":true,"acceptsCard":true,"offersPickup":true,"offersDelivery":false,"isTestRestaurant":false,"minWaitTime":45,"maxWaitTime":60,"open":false,"url":"https://eatstreet.com/boston-ma/restaurants/pita-kabob","hours":{"Monday":["8:00 AM - 5:00 PM"],"Wednesday":["8:00 AM - 5:00 PM"],"Tuesday":["8:00 AM - 5:00 PM"],"Friday":["8:00 AM - 5:00 PM"],"Thursday":["8:00 AM - 5:00 PM"]},"timezone":"US/Eastern"},{"apiKey":"ee3f841c5988f406884225aec137a02a49a3da4a975805a0","deliveryMin":10.00,"logoUrl":"https://eatstreet-static.s3.amazonaws.com/assets/images/restaurant_logos/pizza-king-11055_1419362640231.png","name":"Pizza King","streetAddress":"147 Highland Ave","city":"Somerville","state":"MA","zip":"02771","foodTypes":["Pizza"],"phone":"(617) 625-7570","latitude":42.388507,"longitude":-71.102832,"minFreeDelivery":0.00,"taxRate":0.0630,"acceptsCash":true,"acceptsCard":true,"offersPickup":true,"offersDelivery":true,"isTestRestaurant":false,"minWaitTime":45,"maxWaitTime":60,"open":false,"url":"https://eatstreet.com/boston-ma/restaurants/pizza-king","hours":{"Monday":["11:00 AM - 9:30 PM"],"Saturday":["11:00 AM - 9:30 PM"],"Wednesday":["11:00 AM - 9:30 PM"],"Tuesday":["11:00 AM - 9:30 PM"],"Friday":["11:00 AM - 9:30 PM"],"Thursday":["11:00 AM - 9:30 PM"]},"timezone":"US/Eastern"},{"apiKey":"ee3f841c5988f406144247b91fbcb2f34cf818713b581761","deliveryMin":12.00,"logoUrl":"https://eatstreet-static.s3.amazonaws.com/assets/images/restaurant_logos/pizzeria-dante-22420_1409695973273.png","name":"Pizzeria Dante","streetAddress":"415 Harvard St.","city":"Brookline","state":"MA","zip":"02446","foodTypes":["Pasta","Pizza"],"phone":"(617) 232-5353","latitude":42.345372,"longitude":-71.127049,"minFreeDelivery":0.00,"taxRate":0.0625,"acceptsCash":true,"acceptsCard":true,"offersPickup":true,"offersDelivery":true,"isTestRestaurant":false,"minWaitTime":45,"maxWaitTime":60,"open":false,"url":"https://eatstreet.com/boston-ma/restaurants/pizzeria-dante","hours":{"Monday":["11:30 AM - 9:50 PM"],"Saturday":["11:30 AM - 9:50 PM"],"Sunday":["12:00 PM - 8:50 PM"],"Wednesday":["11:30 AM - 9:50 PM"],"Tuesday":["11:30 AM - 9:50 PM"],"Friday":["11:30 AM - 9:50 PM"],"Thursday":["11:30 AM - 9:50 PM"]},"timezone":"US/Eastern"},{"apiKey":"ee3f841c5988f40665357bbaef9033f40e94926a1b4e5086","deliveryMin":15.00,"deliveryPrice":5.00,"logoUrl":"https://eatstreet-static.s3.amazonaws.com/assets/images/restaurant_logos/la-la-mina-pizza-and-pasta-9523_1418680126941.png","name":"Potato Freaks","streetAddress":"400 W Broadway","city":"Boston","state":"MA","zip":"02127","foodTypes":["Pizza"],"phone":"(617) 269-7755","latitude":42.337174,"longitude":-71.048281,"minFreeDelivery":0.00,"taxRate":0.0630,"acceptsCash":true,"acceptsCard":true,"offersPickup":true,"offersDelivery":true,"isTestRestaurant":false,"minWaitTime":45,"maxWaitTime":60,"open":false,"url":"https://eatstreet.com/boston-ma/restaurants/potato-freaks","hours":{"Monday":["9:00 AM - 9:30 PM"],"Saturday":["9:00 AM - 9:30 PM"],"Sunday":["9:00 AM - 9:30 PM"],"Wednesday":["9:00 AM - 9:30 PM"],"Tuesday":["9:00 AM - 9:30 PM"],"Friday":["9:00 AM - 9:30 PM"],"Thursday":["9:00 AM - 9:30 PM"]},"timezone":"US/Eastern"},{"apiKey":"ee3f841c5988f406f15b4f2e73e761804724b8ecba39f6c5","deliveryMin":25.00,"logoUrl":"https://eatstreet-static.s3.amazonaws.com/assets/images/restaurant_logos/potbelly-sandwich-shop-32397_1439979927926.png","name":"Potbelly Sandwich Shop","streetAddress":"1 Porter Sq","city":"Cambridge","state":"MA","zip":"02140","foodTypes":["Subs & Sandwiches","Healthy Food","Soup","Sandwiches","Salad"],"phone":"(617) 936-2285","latitude":42.38843,"longitude":-71.118495,"minFreeDelivery":0.00,"taxRate":0.0625,"acceptsCash":true,"acceptsCard":true,"offersPickup":true,"offersDelivery":true,"isTestRestaurant":false,"minWaitTime":45,"maxWaitTime":60,"open":false,"url":"https://eatstreet.com/boston-ma/restaurants/potbelly-sandwich-shop-cambridge","hours":{"Monday":["10:30 AM - 2:00 PM"],"Wednesday":["10:30 AM - 2:00 PM"],"Tuesday":["10:30 AM - 2:00 PM"],"Friday":["10:30 AM - 2:00 PM"],"Thursday":["10:30 AM - 2:00 PM"]},"timezone":"US/Eastern"},{"apiKey":"ee3f841c5988f406884225aec137a02a5f40044381ec3db1","deliveryMin":10.00,"logoUrl":"https://eatstreet-static.s3.amazonaws.com/assets/images/restaurant_logos/primo-pizza-and-roast-beef-16827_1419367016841.png","name":"Primo Pizza and Roast Beef","streetAddress":"783 Main St","city":"Cambridge","state":"MA","zip":"02139","foodTypes":["Pizza"],"phone":"(617) 945-0878","latitude":42.363442,"longitude":-71.096853,"minFreeDelivery":0.00,"taxRate":0.0630,"acceptsCash":true,"acceptsCard":true,"offersPickup":true,"offersDelivery":true,"isTestRestaurant":false,"minWaitTime":45,"maxWaitTime":60,"open":false,"url":"https://eatstreet.com/boston-ma/restaurants/primo-pizza-and-roast-beef","hours":{"Monday":["11:00 AM - 9:45 PM"],"Saturday":["11:00 AM - 9:45 PM"],"Wednesday":["11:00 AM - 9:45 PM"],"Tuesday":["11:00 AM - 9:45 PM"],"Friday":["11:00 AM - 9:45 PM"],"Thursday":["11:00 AM - 9:45 PM"]},"timezone":"US/Eastern"},{"apiKey":"ee3f841c5988f406f15b4f2e73e76180bc649108cd179c99","deliveryMin":15.00,"logoUrl":"https://eatstreet-static.s3.amazonaws.com/assets/images/restaurant_logos/pronto-cafe-36626_1461269626055.png","name":"Pronto Cafe","streetAddress":"645 Cambridge St","city":"Cambridge","state":"MA","zip":"02141","foodTypes":["American Food","Pizza","Breakfast","Breakfast & Brunch","American (Traditional)"],"phone":"(617) 945-1909","latitude":42.372109,"longitude":-71.087126,"minFreeDelivery":0.00,"taxRate":0.0625,"acceptsCash":true,"acceptsCard":true,"offersPickup":true,"offersDelivery":true,"isTestRestaurant":false,"minWaitTime":45,"maxWaitTime":60,"open":true,"url":"https://eatstreet.com/boston-ma/restaurants/pronto-cafe-cambridge","hours":{"Monday":["11:00 AM - 10:00 PM"],"Saturday":["8:00 AM - 2:00 AM"],"Sunday":["8:00 AM - 2:00 PM"],"Wednesday":["11:00 AM - 10:00 PM"],"Tuesday":["11:00 AM - 10:00 PM"],"Friday":["11:00 AM - 2:00 AM"],"Thursday":["11:00 AM - 10:00 PM"]},"timezone":"US/Eastern"},{"apiKey":"ee3f841c5988f406884225aec137a02abe27b3d1722dec15","deliveryMin":15.00,"logoUrl":"https://eatstreet-static.s3.amazonaws.com/assets/images/restaurant_logos/punjab-palace-10761_1397775478951.png","name":"Punjab Palace","streetAddress":"109 Brighton Ave","city":"Allston","state":"MA","zip":"02134","foodTypes":["Indian Food","Indian"],"phone":"(617) 254-1500","latitude":42.35273,"longitude":-71.130431,"minFreeDelivery":0.00,"taxRate":0.0630,"acceptsCash":true,"acceptsCard":true,"offersPickup":true,"offersDelivery":true,"isTestRestaurant":false,"minWaitTime":45,"maxWaitTime":60,"open":false,"url":"https://eatstreet.com/boston-ma/restaurants/punjab-palace","hours":{"Monday":["11:15 AM - 2:45 PM","4:30 PM - 10:40 PM"],"Saturday":["11:30 AM - 10:40 PM"],"Sunday":["11:30 AM - 10:40 PM"],"Wednesday":["11:15 AM - 2:45 PM","4:30 PM - 10:40 PM"],"Tuesday":["11:15 AM - 2:45 PM","4:30 PM - 10:40 PM"],"Friday":["11:15 AM - 2:45 PM","4:30 PM - 10:40 PM"],"Thursday":["11:15 AM - 2:45 PM","4:30 PM - 10:40 PM"]},"timezone":"US/Eastern"},{"apiKey":"ee3f841c5988f406884225aec137a02acd34871886a3c0f6","deliveryMin":25.00,"logoUrl":"https://eatstreet-static.s3.amazonaws.com/assets/images/restaurant_logos/ramis-falafel-14721_1401909918144.png","name":"Rami's Falafel","streetAddress":"324 Harvard St","city":"Brookline","state":"MA","zip":"02124","foodTypes":["Mediterranean","Middle Eastern","Kosher"],"phone":"(617) 738-3577","latitude":42.343373,"longitude":-71.123643,"minFreeDelivery":0.00,"taxRate":0.0630,"acceptsCash":true,"acceptsCard":true,"offersPickup":true,"offersDelivery":false,"isTestRestaurant":false,"minWaitTime":45,"maxWaitTime":60,"open":false,"url":"https://eatstreet.com/boston-ma/restaurants/ramis-falafel","hours":{"Monday":["11:00 AM - 9:00 PM"],"Sunday":["11:00 AM - 9:00 PM"],"Wednesday":["11:00 AM - 9:00 PM"],"Tuesday":["11:00 AM - 9:00 PM"],"Friday":["11:00 AM - 1:30 PM"],"Thursday":["11:00 AM - 9:00 PM"]},"timezone":"US/Eastern"},{"apiKey":"ee3f841c5988f406144247b91fbcb2f3f8db1e3cc6993048","logoUrl":"https://eatstreet-static.s3.amazonaws.com/assets/images/restaurant_logos/rangzen-tibetan-place-24662_1413558218844.png","name":"Rangzen Tibetan Place","streetAddress":"24 Pearl St","city":"Cambridge","state":"MA","zip":"02139","foodTypes":["Coffee & Tea","Himalayan & Nepalese Food","Soup"],"phone":"(617) 354-8881","latitude":42.3641529,"longitude":-71.1029549,"minFreeDelivery":0.00,"taxRate":0.0625,"acceptsCash":true,"acceptsCard":true,"offersPickup":true,"offersDelivery":false,"isTestRestaurant":false,"minWaitTime":45,"maxWaitTime":60,"open":false,"url":"https://eatstreet.com/boston-ma/restaurants/rangzen-tibetan-place","hours":{"Monday":["11:30 AM - 3:00 PM","5:30 PM - 10:00 PM"],"Saturday":["11:30 AM - 3:00 PM","5:30 PM - 10:00 PM"],"Wednesday":["11:30 AM - 3:00 PM","5:30 PM - 10:00 PM"],"Tuesday":["11:30 AM - 3:00 PM","5:30 PM - 10:00 PM"],"Friday":["11:30 AM - 3:00 PM","5:30 PM - 10:00 PM"],"Thursday":["11:30 AM - 3:00 PM","5:30 PM - 10:00 PM"]},"timezone":"US/Eastern"},{"apiKey":"ee3f841c5988f406884225aec137a02ade6f1b504da6aa47","deliveryMin":10.00,"logoUrl":"https://eatstreet-static.s3.amazonaws.com/assets/images/restaurant_logos/red-house-chinese-restaurant-11771_1399582013877.png","name":"Red House Chinese Restaurant","streetAddress":"24 Union Square","city":"Somerville","state":"MA","zip":"02368","foodTypes":["Chinese Food","Chinese"],"phone":"(617) 666-4300","latitude":42.380117,"longitude":-71.096817,"minFreeDelivery":0.00,"taxRate":0.0630,"acceptsCash":true,"acceptsCard":true,"offersPickup":true,"offersDelivery":true,"isTestRestaurant":false,"minWaitTime":45,"maxWaitTime":60,"open":true,"url":"https://eatstreet.com/boston-ma/restaurants/red-house-chinese","hours":{"Monday":["11:00 AM - 1:30 AM"],"Saturday":["11:00 AM - 2:00 AM"],"Sunday":["11:00 AM - 1:30 AM"],"Wednesday":["11:00 AM - 1:30 AM"],"Tuesday":["11:00 AM - 1:30 AM"],"Friday":["11:00 AM - 2:00 AM"],"Thursday":["11:00 AM - 1:30 AM"]},"timezone":"US/Eastern"},{"apiKey":"ee3f841c5988f40665357bbaef9033f442288b7fae16ff5b","deliveryMin":10.00,"logoUrl":"https://eatstreet-static.s3.amazonaws.com/assets/images/restaurant_logos/restaurante-montecristo-9779_1419367567219.png","name":"Restaurante Montecristo","streetAddress":"36 Central Square","city":"Boston","state":"MA","zip":"02139","foodTypes":["Mexican Food","Latin American Food","Latin American","Mexican"],"phone":"(617) 561-6046","latitude":42.374483,"longitude":-71.039756,"minFreeDelivery":0.00,"taxRate":0.0630,"acceptsCash":false,"acceptsCard":true,"offersPickup":true,"offersDelivery":true,"isTestRestaurant":false,"minWaitTime":35,"maxWaitTime":45,"open":false,"url":"https://eatstreet.com/boston-ma/restaurants/restaurante-montecristo","hours":{"Monday":["9:00 AM - 1:00 AM"],"Saturday":["9:00 AM - 1:00 AM"],"Sunday":["9:00 AM - 1:00 AM"],"Wednesday":["9:00 AM - 1:00 AM"],"Tuesday":["9:00 AM - 1:00 AM"],"Friday":["9:00 AM - 1:00 AM"],"Thursday":["9:00 AM - 1:00 AM"]},"timezone":"US/Eastern"},{"apiKey":"ee3f841c5988f406884225aec137a02a38ae1620d10c0567","deliveryMin":10.00,"logoUrl":"https://eatstreet-static.s3.amazonaws.com/assets/images/restaurant_logos/rice-bowl-13469_1401483479721.png","name":"Rice Bowl","streetAddress":"6 Hemenway","city":"Boston","state":"MA","zip":"01701","foodTypes":["Chinese Food","Japanese Food","Chinese","Japanese"],"phone":"(617) 267-2828","latitude":42.346698,"longitude":-71.089156,"minFreeDelivery":0.00,"taxRate":0.0630,"acceptsCash":true,"acceptsCard":true,"offersPickup":true,"offersDelivery":true,"isTestRestaurant":false,"minWaitTime":45,"maxWaitTime":60,"open":false,"url":"https://eatstreet.com/boston-ma/restaurants/rice-bowl-boston","hours":{"Monday":["11:00 AM - 12:00 AM"],"Saturday":["11:00 AM - 12:00 AM"],"Sunday":["11:00 AM - 12:00 AM"],"Wednesday":["11:00 AM - 12:00 AM"],"Tuesday":["11:00 AM - 12:00 AM"],"Friday":["11:00 AM - 12:00 AM"],"Thursday":["11:00 AM - 12:00 AM"]},"timezone":"US/Eastern"},{"apiKey":"ee3f841c5988f406884225aec137a02a226d8bdce17bb49a","deliveryMin":10.00,"deliveryPrice":1.00,"logoUrl":"https://eatstreet-static.s3.amazonaws.com/assets/images/restaurant_logos/rome-pizza-14246_1401826497190.png","name":"Rome Pizza","streetAddress":"416 Tremont St","city":"Boston","state":"MA","zip":"02332","foodTypes":["Pizza","Italian Food","Italian"],"phone":"(617) 695-1640","latitude":42.346815,"longitude":-71.068674,"minFreeDelivery":0.00,"taxRate":0.0630,"acceptsCash":true,"acceptsCard":true,"offersPickup":true,"offersDelivery":true,"isTestRestaurant":false,"minWaitTime":45,"maxWaitTime":60,"open":false,"url":"https://eatstreet.com/boston-ma/restaurants/rome-pizza","hours":{"Monday":["10:30 AM - 10:45 PM"],"Saturday":["10:30 AM - 10:45 PM"],"Sunday":["10:30 AM - 10:45 PM"],"Wednesday":["10:30 AM - 10:45 PM"],"Tuesday":["10:30 AM - 10:45 PM"],"Friday":["10:30 AM - 10:45 PM"],"Thursday":["10:30 AM - 10:45 PM"]},"timezone":"US/Eastern"},{"apiKey":"ee3f841c5988f406884225aec137a02a108c404ab9a87b99","deliveryMin":15.00,"logoUrl":"https://eatstreet-static.s3.amazonaws.com/assets/images/restaurant_logos/royal-bengal-12307_1400701490781.png","name":"Royal Bengal","streetAddress":"364 Medford St","city":"Somerville","state":"MA","zip":"02145","foodTypes":["Asian Food","Indian Food","Indian"],"phone":"(617) 616-5058","latitude":42.389278,"longitude":-71.09744,"minFreeDelivery":0.00,"taxRate":0.0630,"acceptsCash":true,"acceptsCard":true,"offersPickup":true,"offersDelivery":true,"isTestRestaurant":false,"minWaitTime":60,"maxWaitTime":60,"open":false,"url":"https://eatstreet.com/boston-ma/restaurants/royal-bengal","hours":{"Saturday":["12:30 PM - 10:00 PM"],"Sunday":["12:30 PM - 10:00 PM"],"Wednesday":["12:30 PM - 10:00 PM"],"Tuesday":["12:30 PM - 10:00 PM"],"Friday":["12:30 PM - 10:00 PM"],"Thursday":["12:30 PM - 10:00 PM"]},"timezone":"US/Eastern"},{"apiKey":"ee3f841c5988f406f15b4f2e73e761805276a1916f8b790c","deliveryMin":15.00,"logoUrl":"https://eatstreet-static.s3.amazonaws.com/assets/images/restaurant_logos/royal-punjab-31291_1435187294525.png","name":"Royal Punjab","streetAddress":"251 Cambridge St","city":"Cambridge","state":"MA","zip":"02141","foodTypes":["Vegetarian","Halal","Indian Food","Indian"],"phone":"(617) 492-7232","latitude":42.371236,"longitude":-71.080222,"minFreeDelivery":0.00,"taxRate":0.0625,"acceptsCash":true,"acceptsCard":true,"offersPickup":true,"offersDelivery":true,"isTestRestaurant":false,"minWaitTime":45,"maxWaitTime":60,"open":false,"url":"https://eatstreet.com/boston-ma/restaurants/royal-punjab","hours":{"Monday":["11:00 AM - 10:00 PM"],"Saturday":["11:00 AM - 10:00 PM"],"Sunday":["11:00 AM - 10:00 PM"],"Wednesday":["11:00 AM - 10:00 PM"],"Tuesday":["11:00 AM - 10:00 PM"],"Friday":["11:00 AM - 10:00 PM"],"Thursday":["11:00 AM - 10:00 PM"]},"timezone":"US/Eastern"},{"apiKey":"ee3f841c5988f406884225aec137a02a7223ff0b064fbfc1","deliveryMin":20.00,"logoUrl":"https://eatstreet-static.s3.amazonaws.com/assets/images/restaurant_logos/shalimar-food-and-spice-17723_1405018384581.png","name":"Shalimar Food & Spice","streetAddress":"571 Massachusetts Ave","city":"Cambridge","state":"MA","zip":"02139","foodTypes":["Indian Food"],"phone":"(617) 868-3672","latitude":42.364951,"longitude":-71.102426,"minFreeDelivery":0.00,"taxRate":0.0770,"acceptsCash":false,"acceptsCard":true,"offersPickup":true,"offersDelivery":true,"isTestRestaurant":false,"minWaitTime":45,"maxWaitTime":60,"open":false,"url":"https://eatstreet.com/boston-ma/restaurants/shalimar-food-and-spices","hours":{"Monday":["10:30 AM - 9:30 PM"],"Saturday":["10:30 AM - 9:30 PM"],"Sunday":["10:30 AM - 9:30 PM"],"Wednesday":["10:30 AM - 9:30 PM"],"Tuesday":["10:30 AM - 9:30 PM"],"Friday":["10:30 AM - 9:30 PM"],"Thursday":["10:30 AM - 9:30 PM"]},"timezone":"US/Eastern"},{"apiKey":"ee3f841c5988f40665357bbaef9033f4891fe930a1421268","deliveryMin":20.00,"logoUrl":"https://eatstreet-static.s3.amazonaws.com/assets/images/restaurant_logos/shan-a-punjab-9902_1396303072235.png","name":"Shan-A-Punjab","streetAddress":"455 Harvard St","city":"Brookline","state":"MA","zip":"02333","foodTypes":["Indian Food","Indian"],"phone":"(617) 734-9000","latitude":42.346527,"longitude":-71.128219,"minFreeDelivery":0.00,"taxRate":0.0630,"acceptsCash":true,"acceptsCard":true,"offersPickup":true,"offersDelivery":true,"isTestRestaurant":false,"minWaitTime":45,"maxWaitTime":60,"open":false,"url":"https://eatstreet.com/boston-ma/restaurants/shan-a-punjab","hours":{"Monday":["11:20 AM - 9:55 PM"],"Saturday":["11:20 AM - 9:55 PM"],"Sunday":["12:00 PM - 9:55 PM"],"Wednesday":["11:20 AM - 9:55 PM"],"Tuesday":["11:20 AM - 9:55 PM"],"Friday":["11:20 AM - 9:55 PM"],"Thursday":["11:20 AM - 9:55 PM"]},"timezone":"US/Eastern"},{"apiKey":"ee3f841c5988f406f15b4f2e73e76180cf00473213285f71","deliveryMin":20.00,"logoUrl":"https://eatstreet-static.s3.amazonaws.com/assets/images/restaurant_logos/shanti-cambridge-36843_1463660884017.png","name":"Shanti - Cambridge","streetAddress":"7 Broad Canal Way","city":"Cambridge","state":"MA","zip":"02142","foodTypes":["Indian Food","Indian"],"phone":"(617) 714-5051","latitude":42.363581,"longitude":-71.083085,"minFreeDelivery":0.00,"taxRate":0.0625,"acceptsCash":true,"acceptsCard":true,"offersPickup":true,"offersDelivery":true,"isTestRestaurant":false,"minWaitTime":45,"maxWaitTime":60,"open":false,"url":"https://eatstreet.com/boston-ma/restaurants/shanti","hours":{"Monday":["11:30 AM - 9:45 PM"],"Saturday":["11:30 AM - 9:45 PM"],"Sunday":["11:30 AM - 9:45 PM"],"Wednesday":["11:30 AM - 9:45 PM"],"Tuesday":["11:30 AM - 9:45 PM"],"Friday":["11:30 AM - 9:45 PM"],"Thursday":["11:30 AM - 9:45 PM"]},"timezone":"US/Eastern"},{"apiKey":"ee3f841c5988f406f15b4f2e73e76180411095e00d3113f6","deliveryMin":20.00,"logoUrl":"https://eatstreet-static.s3.amazonaws.com/assets/images/restaurant_logos/shanti-dorchester-36844_1463660908694.png","name":"Shanti - Dorchester","streetAddress":"1111 Dorchester Ave","city":"Dorchester","state":"MA","zip":"02125","foodTypes":["Fusion","Indian Food","Indian","Bangladeshi","Asian Fusion"],"phone":"(617) 929-3900","latitude":42.312658,"longitude":-71.057493,"minFreeDelivery":0.00,"taxRate":0.0625,"acceptsCash":true,"acceptsCard":true,"offersPickup":true,"offersDelivery":true,"isTestRestaurant":false,"minWaitTime":45,"maxWaitTime":60,"open":false,"url":"https://eatstreet.com/boston-ma/restaurants/shanti-dorchester","hours":{"Monday":["11:30 AM - 2:45 PM","5:00 PM - 9:40 PM"],"Saturday":["11:30 AM - 2:45 PM","5:00 PM - 9:40 PM"],"Sunday":["11:30 AM - 2:45 PM","5:00 PM - 9:40 PM"],"Wednesday":["11:30 AM - 2:45 PM","5:00 PM - 9:40 PM"],"Tuesday":["11:30 AM - 2:45 PM","5:00 PM - 9:40 PM"],"Friday":["11:30 AM - 2:45 PM","5:00 PM - 9:40 PM"],"Thursday":["11:30 AM - 2:45 PM","5:00 PM - 9:40 PM"]},"timezone":"US/Eastern"},{"apiKey":"ee3f841c5988f406f15b4f2e73e761803bd7a92adb3e8eff","deliveryMin":10.00,"logoUrl":"https://eatstreet-static.s3.amazonaws.com/assets/images/restaurant_logos/shawarma-falafel-34719_1449679073083.png","name":"Shawarma Falafel","streetAddress":"26 Province St","city":"Boston","state":"MA","zip":"02108","foodTypes":["Middle Eastern Food","Mediterranean Food","Middle Eastern"],"phone":"(857) 265-3017","latitude":42.357209,"longitude":-71.059628,"minFreeDelivery":0.00,"taxRate":0.0625,"acceptsCash":true,"acceptsCard":true,"offersPickup":true,"offersDelivery":false,"isTestRestaurant":false,"minWaitTime":45,"maxWaitTime":60,"open":false,"url":"https://eatstreet.com/boston-ma/restaurants/shawarma-falafel","hours":{"Monday":["8:00 AM - 9:00 PM"],"Saturday":["8:00 AM - 9:00 PM"],"Sunday":["12:00 PM - 7:00 PM"],"Wednesday":["8:00 AM - 9:00 PM"],"Tuesday":["8:00 AM - 9:00 PM"],"Friday":["8:00 AM - 9:00 PM"],"Thursday":["8:00 AM - 9:00 PM"]},"timezone":"US/Eastern"},{"apiKey":"ee3f841c5988f406144247b91fbcb2f3b2aab4df92d6c303","deliveryMin":15.00,"deliveryPrice":2.00,"logoUrl":"https://eatstreet-static.s3.amazonaws.com/assets/images/restaurant_logos/siam-bistro-thai-cuisine-20320_1408042727623.png","name":"Siam Bistro Thai Cuisine","streetAddress":"151 Pearl St","city":"Boston","state":"MA","zip":"02110","foodTypes":["Thai Food"],"phone":"(617) 210-7953","latitude":42.354588,"longitude":-71.053519,"minFreeDelivery":0.00,"taxRate":0.0700,"acceptsCash":true,"acceptsCard":true,"offersPickup":true,"offersDelivery":true,"isTestRestaurant":false,"minWaitTime":105,"maxWaitTime":120,"open":false,"url":"https://eatstreet.com/boston-ma/restaurants/siam-bistro-thai-cuisine","hours":{"Monday":["11:00 AM - 9:45 PM"],"Sunday":["4:00 PM - 9:45 PM"],"Wednesday":["11:00 AM - 9:45 PM"],"Tuesday":["11:00 AM - 9:45 PM"],"Friday":["11:00 AM - 9:45 PM"],"Thursday":["11:00 AM - 9:45 PM"]},"timezone":"US/Eastern"},{"apiKey":"ee3f841c5988f406144247b91fbcb2f3ae5c72d04e94d8ed","deliveryMin":15.00,"logoUrl":"https://eatstreet-static.s3.amazonaws.com/assets/images/restaurant_logos/sweet-ginger-23710_1412090278928.png","name":"Siam Ginger","streetAddress":"22 Bow Street","city":"Somerville","state":"MA","zip":"02143","foodTypes":["Vegetarian","Thai Food"],"phone":"(617) 625-5015","latitude":42.380843,"longitude":-71.097365,"minFreeDelivery":0.00,"taxRate":0.0700,"acceptsCash":true,"acceptsCard":true,"offersPickup":true,"offersDelivery":true,"isTestRestaurant":false,"minWaitTime":45,"maxWaitTime":60,"open":false,"url":"https://eatstreet.com/boston-ma/restaurants/siam-ginger","hours":{"Monday":["11:30 AM - 9:30 PM"],"Saturday":["12:00 PM - 10:00 PM"],"Sunday":["4:30 PM - 9:00 PM"],"Wednesday":["11:30 AM - 9:30 PM"],"Tuesday":["11:30 AM - 9:30 PM"],"Friday":["11:30 AM - 10:00 PM"],"Thursday":["11:30 AM - 9:30 PM"]},"timezone":"US/Eastern"},{"apiKey":"ee3f841c5988f406884225aec137a02a7092ca8f8e32b0dd","deliveryMin":25.00,"logoUrl":"https://eatstreet-static.s3.amazonaws.com/assets/images/restaurant_logos/some-ting-nice-caribbean-restaurant-12288_1400274024639.png","name":"Some 'Ting Nice Caribbean Restaurant","streetAddress":"561 McGrath Hwy","city":"Somerville","state":"MA","zip":"02145","foodTypes":["Caribbean Food","Caribbean"],"phone":"(617) 627-9047","latitude":42.38667,"longitude":-71.090234,"minFreeDelivery":0.00,"taxRate":0.0630,"acceptsCash":true,"acceptsCard":true,"offersPickup":true,"offersDelivery":true,"isTestRestaurant":false,"minWaitTime":45,"maxWaitTime":60,"open":false,"url":"https://eatstreet.com/boston-ma/restaurants/some-ting-nice","hours":{"Saturday":["12:00 PM - 9:00 PM"],"Wednesday":["4:00 PM - 8:00 PM"],"Tuesday":["4:00 PM - 8:00 PM"],"Friday":["12:00 PM - 9:00 PM"],"Thursday":["4:00 PM - 8:00 PM"]},"timezone":"US/Eastern"},{"apiKey":"ee3f841c5988f406884225aec137a02a1126295ff63d935c","deliveryMin":12.00,"logoUrl":"https://eatstreet-static.s3.amazonaws.com/assets/images/restaurant_logos/south-end-pita-13462_1401481911807.png","name":"South End Pita","streetAddress":"473 Albany St","city":"Boston","state":"MA","zip":"02118","foodTypes":["Middle Eastern Food","Mediterranean Food","Healthy Food","Mediterranean","Middle Eastern","Moroccan"],"phone":"(617) 556-2600","latitude":42.339231,"longitude":-71.065473,"minFreeDelivery":0.00,"taxRate":0.0700,"acceptsCash":true,"acceptsCard":true,"offersPickup":true,"offersDelivery":true,"isTestRestaurant":false,"minWaitTime":45,"maxWaitTime":60,"open":false,"url":"https://eatstreet.com/boston-ma/restaurants/south-end-pita-albany-st","hours":{"Monday":["10:30 AM - 9:30 PM"],"Saturday":["10:30 AM - 9:30 PM"],"Sunday":["10:30 AM - 9:30 PM"],"Wednesday":["10:30 AM - 9:30 PM"],"Tuesday":["10:30 AM - 9:30 PM"],"Friday":["10:30 AM - 9:30 PM"],"Thursday":["10:30 AM - 9:30 PM"]},"timezone":"US/Eastern"},{"apiKey":"ee3f841c5988f406884225aec137a02acde2eac4d50e896c","deliveryMin":15.00,"logoUrl":"https://eatstreet-static.s3.amazonaws.com/assets/images/restaurant_logos/spice-thai-cuisine-16479_1402944404130.png","name":"Spice Thai Cuisine","streetAddress":"24 Holyoke St","city":"Cambridge","state":"MA","zip":"01027","foodTypes":["Pasta","Healthy Food","Thai Food","Thai","Salad","Noodles"],"phone":"(617) 868-9560","latitude":42.3720215,"longitude":-71.1185291,"minFreeDelivery":0.00,"taxRate":0.0630,"acceptsCash":true,"acceptsCard":true,"offersPickup":true,"offersDelivery":true,"isTestRestaurant":false,"minWaitTime":45,"maxWaitTime":60,"open":false,"url":"https://eatstreet.com/boston-ma/restaurants/spice-thai-cuisine","hours":{"Monday":["11:30 AM - 3:00 PM","5:00 PM - 9:30 PM"],"Saturday":["12:00 PM - 10:00 PM"],"Sunday":["12:00 PM - 10:00 PM"],"Wednesday":["11:30 AM - 3:00 PM","5:00 PM - 9:30 PM"],"Tuesday":["11:30 AM - 3:00 PM","5:00 PM - 9:30 PM"],"Friday":["11:30 AM - 3:00 PM","5:00 PM - 9:30 PM"],"Thursday":["11:30 AM - 3:00 PM","5:00 PM - 9:30 PM"]},"timezone":"US/Eastern"},{"apiKey":"ee3f841c5988f406144247b91fbcb2f38333b786c6b89f30","deliveryMin":10.00,"logoUrl":"https://eatstreet-static.s3.amazonaws.com/assets/images/restaurant_logos/stop-and-taste-pizzeria-20732_1408222678835.png","name":"Stop and Taste Pizzeria","streetAddress":"239 Dudley St","city":"Roxbury","state":"MA","zip":"02119","foodTypes":["Subs & Sandwiches","Burgers","Pizza"],"phone":"(617) 445-7866","latitude":42.32849,"longitude":-71.079714,"minFreeDelivery":0.00,"taxRate":0.0625,"acceptsCash":true,"acceptsCard":true,"offersPickup":true,"offersDelivery":true,"isTestRestaurant":false,"minWaitTime":45,"maxWaitTime":60,"open":false,"url":"https://eatstreet.com/boston-ma/restaurants/stop-and-taste-pizzeria","hours":{"Monday":["11:00 AM - 9:30 PM"],"Saturday":["11:00 AM - 10:30 PM"],"Wednesday":["11:00 AM - 9:30 PM"],"Tuesday":["11:00 AM - 9:30 PM"],"Friday":["11:00 AM - 10:30 PM"],"Thursday":["11:00 AM - 9:30 PM"]},"timezone":"US/Eastern"},{"apiKey":"ee3f841c5988f406884225aec137a02a1069ce29147554d9","deliveryMin":15.00,"logoUrl":"https://eatstreet-static.s3.amazonaws.com/assets/images/restaurant_logos/super-fusion-sushi-iii-16112_1402082792529.png","name":"Super Fusion Sushi III","streetAddress":"1759 Massachusetts Ave","city":"Cambridge","state":"MA","zip":"02140","foodTypes":["Sushi","Sushi Bars"],"phone":"(617) 864-6299","latitude":42.385188,"longitude":-71.119136,"minFreeDelivery":0.00,"taxRate":0.0630,"acceptsCash":true,"acceptsCard":true,"offersPickup":true,"offersDelivery":true,"isTestRestaurant":false,"minWaitTime":45,"maxWaitTime":60,"open":false,"url":"https://eatstreet.com/boston-ma/restaurants/super-fusion-sushi-iii","hours":{"Monday":["5:30 PM - 9:45 PM"],"Saturday":["5:30 PM - 10:15 PM"],"Sunday":["5:30 PM - 9:45 PM"],"Wednesday":["5:30 PM - 9:45 PM"],"Tuesday":["5:30 PM - 9:45 PM"],"Friday":["5:30 PM - 10:15 PM"],"Thursday":["5:30 PM - 9:45 PM"]},"timezone":"US/Eastern"},{"apiKey":"ee3f841c5988f406884225aec137a02aa72ca732d76009ba","deliveryMin":25.00,"logoUrl":"https://eatstreet-static.s3.amazonaws.com/assets/images/restaurant_logos/tanjore-18428_1417471135213.png","name":"Tanjore","streetAddress":"18 ELIOT STREET","city":"Cambridge","state":"MA","zip":"02138","foodTypes":["Indian Food"],"phone":"(617) 868-1900","latitude":42.3720017,"longitude":-71.1214363,"minFreeDelivery":0.00,"taxRate":0.0700,"acceptsCash":true,"acceptsCard":true,"offersPickup":true,"offersDelivery":true,"isTestRestaurant":false,"minWaitTime":45,"maxWaitTime":60,"open":false,"url":"https://eatstreet.com/boston-ma/restaurants/tanjore","hours":{"Monday":["12:00 PM - 2:00 PM","5:00 PM - 10:00 PM"],"Saturday":["12:00 PM - 3:00 PM","5:00 PM - 10:00 PM"],"Sunday":["12:00 PM - 3:00 PM","5:00 PM - 10:00 PM"],"Wednesday":["12:00 PM - 2:00 PM","5:00 PM - 10:00 PM"],"Tuesday":["12:00 PM - 2:00 PM","5:00 PM - 10:00 PM"],"Friday":["12:00 PM - 2:00 PM","5:00 PM - 10:00 PM"],"Thursday":["12:00 PM - 2:00 PM","5:00 PM - 10:00 PM"]},"timezone":"US/Eastern"},{"apiKey":"ee3f841c5988f406884225aec137a02a922ab34d74496d54","deliveryMin":15.00,"logoUrl":"https://eatstreet-static.s3.amazonaws.com/assets/images/restaurant_logos/teriyaki-yummy-17849_1405462662863.png","name":"Teriyaki Yummy","streetAddress":"16 Everett St","city":"Chelsea","state":"MA","zip":"02150","foodTypes":["Chinese","Japanese"],"phone":"(617) 889-3747","latitude":42.390937,"longitude":-71.038653,"minFreeDelivery":0.00,"taxRate":0.0630,"acceptsCash":true,"acceptsCard":true,"offersPickup":true,"offersDelivery":true,"isTestRestaurant":false,"minWaitTime":45,"maxWaitTime":60,"open":false,"url":"https://eatstreet.com/boston-ma/restaurants/teriyaki-yummy","hours":{"Monday":["11:00 AM - 12:00 AM"],"Saturday":["11:00 AM - 12:00 AM"],"Sunday":["11:00 AM - 12:00 AM"],"Wednesday":["11:00 AM - 12:00 AM"],"Tuesday":["11:00 AM - 12:00 AM"],"Friday":["11:00 AM - 12:00 AM"],"Thursday":["11:00 AM - 12:00 AM"]},"timezone":"US/Eastern"},{"apiKey":"ee3f841c5988f406f15b4f2e73e76180d612abc07bc50018","deliveryMin":15.00,"logoUrl":"https://eatstreet-static.s3.amazonaws.com/assets/images/restaurant_logos/thai-dish-36428_1460655847870.png","name":"Thai Dish - Order Takeout","streetAddress":"270 Babcock St","city":"Boston","state":"MA","zip":"02215","foodTypes":["Thai Food","Thai"],"phone":"(617) 789-5999","latitude":42.352768,"longitude":-71.121792,"minFreeDelivery":0.00,"taxRate":0.0625,"acceptsCash":true,"acceptsCard":true,"offersPickup":true,"offersDelivery":false,"isTestRestaurant":false,"minWaitTime":45,"maxWaitTime":60,"open":false,"url":"https://eatstreet.com/boston-ma/restaurants/thai-dish","hours":{"Monday":["4:00 PM - 9:30 PM"],"Saturday":["4:00 PM - 9:30 PM"],"Sunday":["4:00 PM - 9:30 PM"],"Wednesday":["4:00 PM - 9:30 PM"],"Tuesday":["4:00 PM - 9:30 PM"],"Friday":["4:00 PM - 9:30 PM"],"Thursday":["4:00 PM - 9:30 PM"]},"timezone":"US/Eastern"},{"apiKey":"ee3f841c5988f406f15b4f2e73e76180f74c47857ab42052","deliveryMin":10.00,"logoUrl":"https://eatstreet-static.s3.amazonaws.com/assets/images/restaurant_logos/thai-place-restaurant-33350_1445375393512.png","name":"Thai Place Restaurant","streetAddress":"184 Brighton Ave","city":"Allston","state":"MA","zip":"02134","foodTypes":["Thai Food","Thai"],"phone":"(617) 782-5782","latitude":42.35301,"longitude":-71.133763,"minFreeDelivery":0.00,"taxRate":0.0625,"acceptsCash":true,"acceptsCard":true,"offersPickup":true,"offersDelivery":true,"isTestRestaurant":false,"minWaitTime":45,"maxWaitTime":60,"open":false,"url":"https://eatstreet.com/boston-ma/restaurants/thai-place-restaurant","hours":{"Monday":["11:30 AM - 10:30 PM"],"Saturday":["11:30 AM - 1:00 AM"],"Sunday":["11:30 AM - 10:30 PM"],"Wednesday":["11:30 AM - 1:00 AM"],"Tuesday":["4:00 PM - 12:45 AM"],"Friday":["11:30 AM - 1:00 AM"],"Thursday":["11:30 AM - 1:00 AM"]},"timezone":"US/Eastern"},{"apiKey":"ee3f841c5988f406f15b4f2e73e7618047716d5f38eb257b","deliveryMin":10.00,"logoUrl":"https://eatstreet-static.s3.amazonaws.com/assets/images/restaurant_logos/thao-ngoc-32161_1438803171056.png","name":"Thao Ngoc","streetAddress":"1331 Dorchester Avenue","city":"Dorchester","state":"MA","zip":"02122","foodTypes":["Vietnamese","Thai","Asian","Cantonese"],"phone":"(617) 506-1224","latitude":42.30525,"longitude":-71.059195,"minFreeDelivery":0.00,"taxRate":0.0625,"acceptsCash":true,"acceptsCard":true,"offersPickup":true,"offersDelivery":true,"isTestRestaurant":false,"minWaitTime":45,"maxWaitTime":60,"open":false,"url":"https://eatstreet.com/boston-ma/restaurants/thao-ngoc","hours":{"Monday":["10:00 AM - 10:00 PM"],"Saturday":["10:00 AM - 10:00 PM"],"Sunday":["10:00 AM - 10:00 PM"],"Wednesday":["10:00 AM - 10:00 PM"],"Tuesday":["10:00 AM - 10:00 PM"],"Friday":["10:00 AM - 10:00 PM"],"Thursday":["10:00 AM - 10:00 PM"]},"timezone":"US/Eastern"},{"apiKey":"ee3f841c5988f406884225aec137a02ae8eff77b8dccd1f9","deliveryMin":20.00,"logoUrl":"https://eatstreet-static.s3.amazonaws.com/assets/images/restaurant_logos/the-house-of-kebab-16592_1452291478095.png","name":"The House of Kebab","streetAddress":"719 Broadway","city":"Somerville","state":"MA","zip":"02148","foodTypes":["Indian Food","Himalayan & Nepalese Food","Pakistani Food",""],"phone":"(617) 764-2947","latitude":42.4000573,"longitude":-71.1125484,"minFreeDelivery":0.00,"taxRate":0.0630,"acceptsCash":true,"acceptsCard":true,"offersPickup":true,"offersDelivery":true,"isTestRestaurant":false,"minWaitTime":45,"maxWaitTime":60,"open":false,"url":"https://eatstreet.com/boston-ma/restaurants/the-house-of-kebab-somerville","hours":{"Monday":["12:00 PM - 10:00 PM"],"Saturday":["12:00 PM - 10:00 PM"],"Sunday":["12:00 PM - 10:00 PM"],"Wednesday":["12:00 PM - 10:00 PM"],"Tuesday":["12:00 PM - 10:00 PM"],"Friday":["12:00 PM - 10:00 PM"],"Thursday":["12:00 PM - 10:00 PM"]},"timezone":"US/Eastern"},{"apiKey":"ee3f841c5988f406884225aec137a02a7ec8c4b74ef4e44a","deliveryMin":15.00,"logoUrl":"https://eatstreet-static.s3.amazonaws.com/assets/images/restaurant_logos/the-kebab-factory-12363_1400786652972.png","name":"The Kebab Factory","streetAddress":"414 Washington St","city":"Somerville","state":"MA","zip":"02143","foodTypes":["Indian Food","Indian"],"phone":"(617) 354-4996","latitude":42.378161,"longitude":-71.106556,"minFreeDelivery":0.00,"taxRate":0.0630,"acceptsCash":true,"acceptsCard":true,"offersPickup":true,"offersDelivery":true,"isTestRestaurant":false,"minWaitTime":45,"maxWaitTime":60,"open":false,"url":"https://eatstreet.com/boston-ma/restaurants/the-kabab-factory","hours":{"Monday":["11:00 AM - 10:00 PM"],"Saturday":["11:00 AM - 10:00 PM"],"Sunday":["11:00 AM - 10:00 PM"],"Wednesday":["11:00 AM - 10:00 PM"],"Tuesday":["11:00 AM - 10:00 PM"],"Friday":["11:00 AM - 10:00 PM"],"Thursday":["11:00 AM - 10:00 PM"]},"timezone":"US/Eastern"},{"apiKey":"ee3f841c5988f40665357bbaef9033f4555cdd67ad00197d","deliveryMin":20.00,"logoUrl":"https://eatstreet-static.s3.amazonaws.com/assets/images/restaurant_logos/thelonious-monkfish-9174_1395957600583.png","name":"Thelonious Monkfish","streetAddress":"524 Massachusetts Ave","city":"Cambridge","state":"MA","zip":"02118","foodTypes":["Japanese Food","Sushi","Thai Food","Piano Bars","Jazz & Blues","Sushi Bars","Thai"],"phone":"(617) 441-2116","latitude":42.36431,"longitude":-71.10192,"minFreeDelivery":0.00,"taxRate":0.0700,"acceptsCash":true,"acceptsCard":true,"offersPickup":true,"offersDelivery":true,"isTestRestaurant":false,"minWaitTime":45,"maxWaitTime":60,"open":false,"url":"https://eatstreet.com/boston-ma/restaurants/thelonious-monkfish","hours":{"Monday":["11:30 AM - 9:45 PM"],"Saturday":["11:30 AM - 10:45 PM"],"Sunday":["11:30 AM - 9:45 PM"],"Wednesday":["11:30 AM - 9:45 PM"],"Tuesday":["11:30 AM - 9:45 PM"],"Friday":["11:30 AM - 10:45 PM"],"Thursday":["11:30 AM - 9:45 PM"]},"timezone":"US/Eastern"},{"apiKey":"ee3f841c5988f406884225aec137a02a77121652fe0f3a95","deliveryMin":15.00,"logoUrl":"https://eatstreet-static.s3.amazonaws.com/assets/images/restaurant_logos/u-sushi-japanese-cuisine-19396_1407263437799.png","name":"U Sushi Japanese Cuisine","streetAddress":"1393 Beacon St","city":"Brookline","state":"MA","zip":"02446","foodTypes":["Japanese Food","Sushi"],"phone":"(617) 278-1688","latitude":42.341054,"longitude":-71.124419,"minFreeDelivery":0.00,"taxRate":0.0625,"acceptsCash":true,"acceptsCard":true,"offersPickup":true,"offersDelivery":true,"isTestRestaurant":false,"minWaitTime":45,"maxWaitTime":60,"open":false,"url":"https://eatstreet.com/boston-ma/restaurants/u-sushi-japanese-cuisine","hours":{"Monday":["11:30 AM - 10:30 PM"],"Saturday":["11:30 AM - 11:00 PM"],"Sunday":["12:00 PM - 10:00 PM"],"Wednesday":["11:30 AM - 10:30 PM"],"Tuesday":["11:30 AM - 10:30 PM"],"Friday":["11:30 AM - 11:00 PM"],"Thursday":["11:30 AM - 10:30 PM"]},"timezone":"US/Eastern"},{"apiKey":"ee3f841c5988f406144247b91fbcb2f3c1d4cc3a40005bff","deliveryMin":15.00,"deliveryPrice":2.00,"logoUrl":"https://eatstreet-static.s3.amazonaws.com/assets/images/restaurant_logos/uandd-kitchen-20733_1420640854867.png","name":"U&D Kitchen","streetAddress":"184 High St","city":"Boston","state":"MA","zip":"02110","foodTypes":["Thai Food","Thai"],"phone":"(617) 338-8999","latitude":42.3565569,"longitude":-71.0523694,"minFreeDelivery":0.00,"taxRate":0.0625,"acceptsCash":true,"acceptsCard":true,"offersPickup":true,"offersDelivery":true,"isTestRestaurant":false,"minWaitTime":45,"maxWaitTime":60,"open":false,"url":"https://eatstreet.com/boston-ma/restaurants/u-and-d-kitchen","hours":{"Monday":["11:00 AM - 9:15 PM"],"Saturday":["11:00 AM - 9:15 PM"],"Sunday":["4:00 PM - 9:15 PM"],"Wednesday":["11:00 AM - 9:15 PM"],"Tuesday":["11:00 AM - 9:15 PM"],"Friday":["11:00 AM - 9:15 PM"],"Thursday":["11:00 AM - 9:15 PM"]},"timezone":"US/Eastern"},{"apiKey":"ee3f841c5988f406144247b91fbcb2f33c6a9b9aa7ad89ad","deliveryMin":20.00,"logoUrl":"https://eatstreet-static.s3.amazonaws.com/assets/images/restaurant_logos/union-square-pizza-22110_1417468776224.png","name":"Union Square Pizza","streetAddress":"63 Union Square","city":"Somerville","state":"MA","zip":"02143","foodTypes":["Pizza"],"phone":"(617) 776-7617","latitude":42.379786,"longitude":-71.096496,"minFreeDelivery":0.00,"taxRate":0.0625,"acceptsCash":true,"acceptsCard":true,"offersPickup":true,"offersDelivery":true,"isTestRestaurant":false,"minWaitTime":45,"maxWaitTime":60,"open":false,"url":"https://eatstreet.com/boston-ma/restaurants/union-square-pizza","hours":{"Monday":["10:30 AM - 11:45 PM"],"Saturday":["10:30 AM - 11:45 PM"],"Sunday":["10:30 AM - 11:45 PM"],"Wednesday":["10:30 AM - 11:45 PM"],"Tuesday":["10:30 AM - 11:45 PM"],"Friday":["10:30 AM - 11:45 PM"],"Thursday":["10:30 AM - 11:45 PM"]},"timezone":"US/Eastern"},{"apiKey":"ee3f841c5988f40665357bbaef9033f4de1350ef4b0172f9","deliveryMin":15.00,"logoUrl":"https://eatstreet-static.s3.amazonaws.com/assets/images/restaurant_logos/village-fare-pizza-9172_1417468368771.png","name":"Village Fare Pizza","streetAddress":"387 Washington St","city":"Brookline","state":"MA","zip":"02446","foodTypes":["Pizza"],"phone":"(617) 739-2774","latitude":42.338229,"longitude":-71.128034,"minFreeDelivery":0.00,"taxRate":0.0630,"acceptsCash":true,"acceptsCard":true,"offersPickup":true,"offersDelivery":true,"isTestRestaurant":false,"minWaitTime":45,"maxWaitTime":60,"open":false,"url":"https://eatstreet.com/boston-ma/restaurants/village-fare-pizza","hours":{"Monday":["11:00 AM - 9:30 PM"],"Saturday":["11:00 AM - 10:30 PM"],"Sunday":["11:00 AM - 9:30 PM"],"Wednesday":["11:00 AM - 9:30 PM"],"Tuesday":["11:00 AM - 9:30 PM"],"Friday":["11:00 AM - 10:30 PM"],"Thursday":["11:00 AM - 9:30 PM"]},"timezone":"US/Eastern"},{"apiKey":"ee3f841c5988f406884225aec137a02ac70b452dfbe6318d","deliveryMin":8.00,"logoUrl":"https://eatstreet-static.s3.amazonaws.com/assets/images/restaurant_logos/village-pizza-and-grill-13457_1401481195232.png","name":"Village Pizza & Grill","streetAddress":"56 L St","city":"South Boston","state":"MA","zip":"01376","foodTypes":["Pizza"],"phone":"(617) 269-9421","latitude":42.33636,"longitude":-71.035222,"minFreeDelivery":0.00,"taxRate":0.0630,"acceptsCash":false,"acceptsCard":true,"offersPickup":true,"offersDelivery":true,"isTestRestaurant":false,"minWaitTime":45,"maxWaitTime":60,"open":false,"url":"https://eatstreet.com/boston-ma/restaurants/village-pizza-and-grill","hours":{"Monday":["11:00 AM - 9:45 PM"],"Saturday":["11:00 AM - 9:45 PM"],"Sunday":["11:00 AM - 9:45 PM"],"Wednesday":["11:00 AM - 9:45 PM"],"Tuesday":["11:00 AM - 9:45 PM"],"Friday":["11:00 AM - 9:45 PM"],"Thursday":["11:00 AM - 9:45 PM"]},"timezone":"US/Eastern"},{"apiKey":"ee3f841c5988f406144247b91fbcb2f336980ab91b998b36","deliveryMin":10.00,"logoUrl":"https://eatstreet-static.s3.amazonaws.com/assets/images/restaurant_logos/village-pizza-house-26598_1421343930443.png","name":"Village Pizza House","streetAddress":"312 Washington St","city":"Brookline","state":"MA","zip":"02445","foodTypes":["Burgers","Pizza"],"phone":"(617) 731-4210","latitude":42.333165,"longitude":-71.119939,"minFreeDelivery":0.00,"taxRate":0.0625,"acceptsCash":true,"acceptsCard":true,"offersPickup":true,"offersDelivery":true,"isTestRestaurant":false,"minWaitTime":45,"maxWaitTime":60,"open":false,"url":"https://eatstreet.com/boston-ma/restaurants/village-pizza-house","hours":{"Monday":["10:00 AM - 9:30 PM"],"Saturday":["10:00 AM - 9:30 PM"],"Sunday":["10:00 AM - 9:30 PM"],"Wednesday":["10:00 AM - 9:30 PM"],"Tuesday":["10:00 AM - 9:30 PM"],"Friday":["10:00 AM - 9:30 PM"],"Thursday":["10:00 AM - 9:30 PM"]},"timezone":"US/Eastern"},{"apiKey":"ee3f841c5988f406884225aec137a02abaad621323a41d0c","deliveryMin":16.00,"deliveryPrice":3.00,"logoUrl":"https://eatstreet-static.s3.amazonaws.com/assets/images/restaurant_logos/viva-burrito-13458_1401481874401.png","name":"Viva Burrito","streetAddress":"66 Staniford St","city":"Boston","state":"MA","zip":"02114","foodTypes":["Mexican Food","Healthy Food","Soup","Mexican","Salad"],"phone":"(617) 523-6390","latitude":42.362922,"longitude":-71.064047,"minFreeDelivery":0.00,"taxRate":0.0700,"acceptsCash":true,"acceptsCard":true,"offersPickup":true,"offersDelivery":true,"isTestRestaurant":false,"minWaitTime":45,"maxWaitTime":60,"open":false,"url":"https://eatstreet.com/boston-ma/restaurants/viva-burrito","hours":{"Monday":["10:30 AM - 9:15 PM"],"Saturday":["10:30 AM - 10:15 PM"],"Sunday":["11:00 AM - 9:15 PM"],"Wednesday":["10:30 AM - 9:15 PM"],"Tuesday":["10:30 AM - 9:15 PM"],"Friday":["10:30 AM - 9:15 PM"],"Thursday":["10:30 AM - 9:15 PM"]},"timezone":"US/Eastern"},{"apiKey":"ee3f841c5988f40665357bbaef9033f418cacacf75ecdbe9","deliveryMin":10.00,"logoUrl":"https://eatstreet-static.s3.amazonaws.com/assets/images/restaurant_logos/white-sport-pizza-and-subs-9359_1417468109688.png","name":"White Sport Pizza & Subs","streetAddress":"506 Medford St","city":"Somerville","state":"MA","zip":"02145","foodTypes":["Bar/Pub Food","Pizza","Sports Bars"],"phone":"(617) 776-0790","latitude":42.396114,"longitude":-71.10369,"minFreeDelivery":0.00,"taxRate":0.0630,"acceptsCash":true,"acceptsCard":true,"offersPickup":true,"offersDelivery":true,"isTestRestaurant":false,"minWaitTime":45,"maxWaitTime":60,"open":false,"url":"https://eatstreet.com/boston-ma/restaurants/white-sport-pizza-and-subs","hours":{"Monday":["11:00 AM - 10:00 PM"],"Saturday":["11:00 AM - 10:00 PM"],"Sunday":["11:00 AM - 10:00 PM"],"Wednesday":["11:00 AM - 10:00 PM"],"Tuesday":["11:00 AM - 10:00 PM"],"Friday":["11:00 AM - 10:00 PM"],"Thursday":["11:00 AM - 10:00 PM"]},"timezone":"US/Eastern"},{"apiKey":"ee3f841c5988f40665357bbaef9033f47558fbd8d1664a95","deliveryMin":10.00,"logoUrl":"https://eatstreet-static.s3.amazonaws.com/assets/images/restaurant_logos/wok-n-roll-9240_1417466995846.png","name":"Wok N Roll","streetAddress":"1908 Massachusetts Ave","city":"Cambridge","state":"MA","zip":"02140","foodTypes":["Chinese Food","Chinese"],"phone":"(617) 497-8638","latitude":42.3888297,"longitude":-71.1199555,"minFreeDelivery":0.00,"taxRate":0.0630,"acceptsCash":true,"acceptsCard":true,"offersPickup":true,"offersDelivery":true,"isTestRestaurant":false,"minWaitTime":45,"maxWaitTime":60,"open":false,"url":"https://eatstreet.com/boston-ma/restaurants/wok-n-roll","hours":{"Monday":["11:30 AM - 10:00 PM"],"Saturday":["11:30 AM - 10:00 PM"],"Sunday":["12:00 PM - 10:00 PM"],"Wednesday":["11:30 AM - 10:00 PM"],"Tuesday":["11:30 AM - 10:00 PM"],"Friday":["11:30 AM - 10:00 PM"],"Thursday":["11:30 AM - 10:00 PM"]},"timezone":"US/Eastern"},{"apiKey":"ee3f841c5988f40665357bbaef9033f4e3dac110d70ff096","deliveryMin":15.00,"logoUrl":"https://eatstreet-static.s3.amazonaws.com/assets/images/restaurant_logos/wok-n-talk-9239_1395094129056.png","name":"Wok N Talk","streetAddress":"23 S Huntington Ave","city":"Boston","state":"MA","zip":"02130","foodTypes":["Chinese Food","Asian Food","Italian Food","Fusion","Thai Food","Chinese","Thai","Calabrian","Japanese"],"phone":"(617) 487-8262","latitude":42.325965,"longitude":-71.111737,"minFreeDelivery":0.00,"taxRate":0.0630,"acceptsCash":true,"acceptsCard":true,"offersPickup":true,"offersDelivery":true,"isTestRestaurant":false,"minWaitTime":45,"maxWaitTime":60,"open":true,"url":"https://eatstreet.com/boston-ma/restaurants/wok-n-talk","hours":{"Monday":["4:00 PM - 3:15 AM"],"Saturday":["4:00 PM - 3:30 AM"],"Sunday":["4:00 PM - 3:00 AM"],"Wednesday":["4:00 PM - 3:15 AM"],"Tuesday":["4:00 PM - 3:15 AM"],"Friday":["4:00 PM - 3:30 AM"],"Thursday":["4:00 PM - 3:15 AM"]},"timezone":"US/Eastern"},{"apiKey":"ee3f841c5988f406f15b4f2e73e761808568bfe2d1db3326","deliveryMin":10.00,"logoUrl":"https://eatstreet-static.s3.amazonaws.com/assets/images/restaurant_logos/woodys-pizza-and-liquors-31994_1438127873949.png","name":"Woody's Pizza & Liquor - Boston","streetAddress":"9 Barnes Ave","city":"Boston","state":"MA","zip":"02128","foodTypes":["Pizza","Sandwiches"],"phone":"(617) 874-8649","latitude":42.38605,"longitude":-71.005575,"minFreeDelivery":0.00,"taxRate":0.0700,"acceptsCash":false,"acceptsCard":true,"offersPickup":true,"offersDelivery":true,"isTestRestaurant":false,"minWaitTime":45,"maxWaitTime":60,"open":false,"url":"https://eatstreet.com/boston-ma/restaurants/woodys-pizza-and-liquors","hours":{"Monday":["11:00 AM - 10:45 PM"],"Saturday":["11:00 AM - 10:45 PM"],"Sunday":["11:00 AM - 10:45 PM"],"Wednesday":["11:00 AM - 10:45 PM"],"Tuesday":["11:00 AM - 10:45 PM"],"Friday":["11:00 AM - 10:45 PM"],"Thursday":["11:00 AM - 10:45 PM"]},"timezone":"US/Eastern"},{"apiKey":"ee3f841c5988f406144247b91fbcb2f38b5ab6c378f54ced","deliveryMin":20.00,"deliveryPrice":2.00,"logoUrl":"https://eatstreet-static.s3.amazonaws.com/assets/images/restaurant_logos/zen-japanese-grill-and-sushi-bar-20309_1407515626747.png","name":"Zen Japanese Grill & Sushi Bar","streetAddress":"21 Beacon St","city":"Boston","state":"MA","zip":"02108","foodTypes":["Japanese Food","Sushi"],"phone":"(617) 371-1230","latitude":42.357988955139,"longitude":-71.062681674957,"minFreeDelivery":0.00,"taxRate":0.0625,"acceptsCash":true,"acceptsCard":true,"offersPickup":true,"offersDelivery":true,"isTestRestaurant":false,"minWaitTime":45,"maxWaitTime":60,"open":false,"url":"https://eatstreet.com/boston-ma/restaurants/zen-japanese-grill-and-sushi-bar","hours":{"Monday":["5:30 PM - 9:30 PM"],"Saturday":["5:30 PM - 9:30 PM"],"Sunday":["5:30 PM - 9:30 PM"],"Wednesday":["5:30 PM - 9:30 PM"],"Tuesday":["5:30 PM - 9:30 PM"],"Friday":["5:30 PM - 9:30 PM"],"Thursday":["5:30 PM - 9:30 PM"]},"timezone":"US/Eastern"},{"apiKey":"ee3f841c5988f406f15b4f2e73e7618023244d28b652e618","deliveryMin":25.00,"logoUrl":"https://eatstreet-static.s3.amazonaws.com/assets/images/restaurant_logos/zest-mediterranean-grille-32244_1438982093009.png","name":"Zest Mediterranean Grille","streetAddress":"1076 Boylston St","city":"Boston","state":"MA","zip":"02215","foodTypes":["Mediterranean Food","Mediterranean"],"phone":"(617) 867-6767","latitude":42.347,"longitude":-71.087978,"minFreeDelivery":0.00,"taxRate":0.0625,"acceptsCash":false,"acceptsCard":true,"offersPickup":true,"offersDelivery":false,"isTestRestaurant":false,"minWaitTime":45,"maxWaitTime":60,"open":false,"url":"https://eatstreet.com/boston-ma/restaurants/zest-mediterranean-grille","hours":{"Monday":["11:45 AM - 8:45 PM"],"Saturday":["11:45 AM - 8:45 PM"],"Sunday":["11:45 AM - 8:45 PM"],"Wednesday":["11:45 AM - 8:45 PM"],"Tuesday":["11:45 AM - 8:45 PM"],"Friday":["11:45 AM - 8:45 PM"],"Thursday":["11:45 AM - 8:45 PM"]},"timezone":"US/Eastern"},{"apiKey":"ee3f841c5988f406884225aec137a02a82e5aefd88e56b26","deliveryMin":10.00,"logoUrl":"https://eatstreet-static.s3.amazonaws.com/assets/images/restaurant_logos/il-panino-cafe-and-grill-17037_1403729739061.png","name":"il Panino Cafe and Grill","streetAddress":"268 Centre St","city":"Jamaica Plain","state":"MA","zip":"02130","foodTypes":["Subs & Sandwiches","Pasta","Pizza","Italian Food","Catering"],"phone":"(617) 942-2096","latitude":42.322847,"longitude":-71.100846,"minFreeDelivery":0.00,"taxRate":0.0630,"acceptsCash":true,"acceptsCard":true,"offersPickup":true,"offersDelivery":true,"isTestRestaurant":false,"minWaitTime":45,"maxWaitTime":60,"open":false,"url":"https://eatstreet.com/boston-ma/restaurants/il-panino-cafe-and-grill","hours":{"Monday":["10:30 AM - 9:00 PM"],"Saturday":["10:30 AM - 9:30 PM"],"Sunday":["12:00 PM - 8:30 PM"],"Wednesday":["10:30 AM - 9:00 PM"],"Tuesday":["10:30 AM - 9:00 PM"],"Friday":["10:30 AM - 9:30 PM"],"Thursday":["10:30 AM - 9:00 PM"]},"timezone":"US/Eastern"}]}